"id","GPS_nr","District","Block","Village","Latitude","Longitude","pH","EC","OC","P2O5","K2O","S","Zn","Cu","Fe","Mn","B"
1,224,"Purnea","Amour","Haripur (Garaiya takir toli)",25.92545,87.74914,5.02,0.01,0.727722772,64.6014,235.2,7.8125,1.426,5.144,218.064,28.93,1.0296
2,225,"Purnea","Amour","Nitendar (Belgacchi)",25.93066,87.73545,5.09,0.03,0.103960396,117.6324,134.4,5.9375,0.498,0.876,90.354,24.53,0.5148
3,226,"Purnea","Amour","Palsa (Rangraiyalal Toli)",25.94916,87.72566,6.02,0.05,0.371287129,85.8138,130.4,6.5625,0.518,1.85,163.922,23.408,0.5544
4,227,"Purnea","Amour","Amour",25.97182,87.7178,6,0.05,0.504950495,426.1764,180.1,2.8125,0.39,0.776,47.938,2.574,1.0692
5,228,"Purnea","Amour","Baghua Kola",25.99051,87.71085,4.67,0.07,0.475247525,136.9164,168,3.75,0.604,1.948,161.788,6.072,1
6,229,"Purnea","Amour","Bhawanipur (Gerwa)",26.00114,87.69816,5.7,0.05,0.49009901,86.778,139.8,27.5,0.416,1.948,126.258,45.716,0.8
7,232,"Purnea","Amour","Dahua Bari",26.04781,87.72515,4.83,0.11,0.698019802,161.9856,701.6,5.9375,0.478,1.366,129.184,30.712,1.3
8,244,"Purnea","Amour","Kharhiya (Doriya)",26.02365,87.67792,5.06,0.06,0.608910891,205.3746,99.456,5.9375,0.704,2.006,183.964,19.47,1.1
9,245,"Purnea","Amour","Dhurpaili (Bagdhar)",26.03833,87.66633,5.99,0.07,0.445544554,142.7016,172.032,27.5,0.452,1.44,134.442,19.69,1
10,246,"Purnea","Amour","Dalmalpur (Belka)",26.05224,87.65775,5.55,0.04,0.54950495,439.6752,75.264,26.875,0.506,1.984,212.52,10.406,1
11,247,"Purnea","Amour","Dalmalpur",26.05658,87.65368,6.23,0.08,0.683168317,655.656,444.864,29.375,3.784,3.052,196.592,42.306,0.8
12,248,"Purnea","Amour","Bahadurpur",25.97326,87.72953,5.15,0.04,0.727722772,127.2744,103.488,30.625,0.556,3.048,159.082,17.688,1
13,249,"Purnea","Amour","Gyandobh",25.97625,87.73784,4.78,0.05,0.445544554,183.198,163.968,14.375,1.096,1.266,122.716,7.722,1
14,250,"Purnea","Amour","Laltoli",25.95428,87.72731,4.4,0.1,0.72,268.0476,233.856,26.5625,1.868,4.734,232.65,15.686,0.8
15,279,"Purnea","Amour","Routi basa",25.90599,87.62671,7.2,0.1,0.397959184,151.3794,131.712,23.125,0.604,2.066,97.636,30.844,0.3168
16,280,"Purnea","Amour","Milki",25.91214,87.62247,5.7,0.06,0.566326531,196.6968,103.488,19.6875,0.892,2.782,172.26,34.54,0.8712
17,281,"Purnea","Amour","Bara Idhgah",25.92237,87.63199,6.9,0.04,0.459183673,215.9808,141.12,20,1.29,3.12,198.77,19.778,2.5344
18,282,"Purnea","Amour","Amgachhi",25.92895,87.65177,5.69,0.06,0.428571429,67.494,104.832,19.375,0.646,2.064,117.898,23.276,0.6336
19,283,"Purnea","Amour","Bengra Mehndipur (Mohanpur)",25.9367,87.65218,5.81,0.04,0.321428571,217.9092,142.464,16.25,1.136,2.412,184.624,45.056,0.792
20,284,"Purnea","Amour","Bengra Mehndipur ",25.9456,87.64781,6.68,0.04,0.382653061,175.4844,91.392,25,0.43,1.538,117.04,25.564,0.9504
21,285,"Purnea","Amour","Majhuwa",25.95457,87.66229,5.69,0.11,0.489795918,169.6992,142.464,20,0.788,0.432,94.754,2.112,0.792
22,286,"Purnea","Amour","Parsari",25.95532,87.6734,5.29,0.08,0.535714286,127.2744,188.16,29.0625,0.756,3.72,166.914,22.22,0.7128
23,287,"Purnea","Amour","Jhouwari (Geriya)",25.95656,87.63232,6.56,0.07,0.168367347,113.7756,133.056,20.3125,0.47,1.45,81.202,24.706,0.7128
24,230,"Purnea","Baisa","Routa",26.0355,87.71323,5.28,0.05,0.623762376,190.9116,194.9,11.5625,0.67,1.714,193.908,28.996,0.8
25,231,"Purnea","Baisa","Raiber (Maujabari)",26.04184,87.7203,4.9,0.22,0.772277228,464.7444,200.3,6.875,3.426,2.856,241.56,47.85,1
26,233,"Purnea","Baisa","Baisa",26.05531,87.73305,5.7,0.05,0.207920792,253.5846,194.9,5,0.78,2.596,197.648,38.764,1.3
27,234,"Purnea","Baisa","Sisabari",26.06942,87.73966,4.84,0.05,0.579207921,200.5536,141.1,4.6875,1.526,3.95,221.1,7.81,1.3
28,235,"Purnea","Baisa","Aasiyani (Bhasawari)",26.09371,87.74116,5.02,0.04,0.49009901,418.4628,211,19.0625,0.72,1.898,237.38,14.41,1.2
29,236,"Purnea","Baisa","Nandniya",26.07194,87.76509,5.01,0.08,0.638613861,188.019,131.7,9.0625,0.892,3.796,208.56,35.904,1.1
30,237,"Purnea","Baisa","Chandel (Baliyamani Kamaldeh)",26.0517,87.78691,5.68,0.14,0.326732673,657.5844,448.9,59.0625,1.466,2.31,206.602,29.942,0.9
31,238,"Purnea","Baisa","Balwa Gostra (Bijwar)",26.06972,87.79823,5.1,0.11,0.757425743,225.6228,207,9.6875,1.04,3.4,194.018,31.9,1.1
33,240,"Purnea","Baisa","Mungra Piyaji (Durgapur)",26.03472,87.78677,4.9,0.18,0.623762376,144.63,122.3,10.3125,0.53,2.198,149.864,25.52,1.3
34,241,"Purnea","Baisa","Sirsi",25.97466,87.80252,5.5,0.08,0.594059406,258.4056,289,4.0625,0.802,2.38,197.186,19.096,1
35,242,"Purnea","Baisa","Ghusmal",26.02968,87.81938,5.19,0.08,0.787128713,582.3768,194.88,3.125,1.554,5.244,244.2,26.686,0.8
36,243,"Purnea","Baisa","Chandel",26.04749,87.80025,4.9,0.06,0.430693069,113.7756,57.792,2.5,0.532,1.856,162.602,8.096,0.7
37,251,"Purnea","Baisi","Asja Mobaiya (Jantahat)",25.91438,87.7493,6.06,0.08,0.6,164.8782,442.176,28.125,0.994,2.38,203.28,76.89,1
38,252,"Purnea","Baisi","Baswari",25.89708,87.75732,6.18,0.09,0.24,220.8018,352.128,33.4375,2.13,5.624,230.472,31.504,0.9
39,253,"Purnea","Baisi","Chopra (Simal Wari)",25.89348,87.7566,4.57,0.05,0.87,296.9736,91.392,22.8125,1.16,2.498,146.19,27.324,1
40,254,"Purnea","Baisi","Chopra ",25.8821,87.75236,5.79,0.05,0.42,267.0834,192.192,29.6875,0.492,2.394,192.808,44.484,0.9504
41,255,"Purnea","Baisi","Chaunpani Shadra",25.87376,87.75105,5.2,0.17,0.6,225.6228,497.28,85.3125,0.936,3.39,195.272,25.586,0.7128
42,256,"Purnea","Baisi","Sishyahi",25.86106,87.76873,4.85,0.3,0.465,269.0118,217.728,44.6875,0.966,2.17,158.972,37.774,0.6336
43,257,"Purnea","Baisi","Charaiya (Bashetna)",25.86092,87.78346,5.82,0.13,0.48,331.6848,481.152,22.8125,0.962,2.798,161.854,51.766,0.7524
44,258,"Purnea","Baisi","Charaiya",25.85646,87.7909,4.8,0.08,0.885,395.322,118.272,16.25,2.682,5.744,226.49,37.532,0.8712
45,259,"Purnea","Baisi","Dangra Ghat",25.85069,87.81366,5.11,0.05,0.255,219.8376,120.96,18.125,0.778,1.562,131.274,15.774,0.7524
46,260,"Purnea","Baisi","Puranaganj",25.86987,87.81768,4.52,0.06,0.27,161.9856,190.848,20.625,0.926,1.76,139.854,20.856,0.7524
47,261,"Purnea","Baisi","Chocha",25.8945,87.81518,5.72,0.04,0.435,150.4152,241.92,21.25,0.566,2.486,150.986,43.692,0.792
48,262,"Purnea","Baisi","Ganger",25.90111,87.81182,5.4,0.08,0.57,166.8066,986.496,85.3125,0.824,2.864,168.124,35.354,0.7128
49,263,"Purnea","Baisi","Baisi",25.86384,87.74056,5.52,0.15,0.48,186.0906,342.72,40,1.008,3.862,189.464,32.934,0.7128
50,264,"Purnea","Baisi","Harin Tor",25.85843,87.7274,5.68,0.09,0.645,188.9832,190.848,32.8125,1.866,3.294,194.854,35.728,0.792
51,265,"Purnea","Baisi","Harirampur",25.85744,87.71653,5.76,0.08,0.57,203.4462,197.568,30.3125,0.872,3.356,171.798,62.524,0.8712
52,266,"Purnea","Baisi","Malhariya",25.85611,87.70522,5.06,0.07,0.855,208.2672,129.024,20.3125,1.184,4.306,204.446,46.728,0.8712
53,267,"Purnea","Baisi","Chandragama",25.85142,87.69539,5.89,0.06,0.6,123.4176,123.648,22.5,0.734,2.788,148.324,33.726,0.2376
54,134,"Purnea","Banmankhi","Majhuwa Premraj",25.86011,87.27838,7.73,0.36,0.69,152.3436,129,2.5,0.584,3.83,39.725,10.7,0.6336
55,135,"Purnea","Banmankhi","Jiyanganj",25.8677,87.25475,7.64,0.15,0.78,491.742,473.1,4.375,1.386,3.294,67.75,17.5,1.2672
56,136,"Purnea","Banmankhi","Kushahaghat",25.88123,87.2332,6.73,0.11,0.8,112.8114,149.2,3.125,0.87,4.726,163.425,34.05,0.5544
57,137,"Purnea","Banmankhi","Banmankhi",25.90118,87.18618,5.66,0.04,0.5,181.2696,125,3.4375,0.766,2.964,224.125,11.975,0.792
58,138,"Purnea","Banmankhi","Dharhara",25.90817,87.16754,6.1,0.08,0.79,185.1264,119.6,2.1875,0.75,3.494,209.5,9.3,1.0296
59,139,"Purnea","Banmankhi","Mohaniya Chakla",25.90964,87.143,7.34,0.15,0.8,115.704,135.7,2.5,0.696,3.38,70.4,14.4,0.9504
60,140,"Purnea","Banmankhi","Sukhiya",25.90006,87.12804,7.66,0.25,1.21,120.525,176.1,3.125,0.858,5.056,82.625,24,0.4752
61,141,"Purnea","Banmankhi","Ram Nagar Farshi",25.88861,87.12456,5.65,0.04,0.69,89.6706,119.6,34.375,0.71,2.596,164.3,3.875,0.792
62,142,"Purnea","Banmankhi","Madhuban",25.88645,87.10819,5.58,0.07,0.73,176.4486,290.3,2.8125,1.168,4.098,201.725,1.675,1.1088
63,143,"Purnea","Banmankhi","Jankinagar",25.89066,87.09693,6.34,0.07,0.5,118.5966,104.8,2.5,0.918,1.642,52.2,11.325,0.7128
64,144,"Purnea","Banmankhi","Harirampur",25.90952,87.05954,5.28,0.09,0.64,79.0644,243.3,2.1875,0.844,5.25,163.675,40.65,0.7128
65,145,"Purnea","Banmankhi","Mirachabari",25.93522,87.04309,6.44,0.14,0.63,127.2744,159.9,31.25,0.708,3.826,116.15,17.85,0.7524
66,146,"Purnea","Banmankhi","Naulakhi",25.93613,87.03541,7.64,0.22,0.5,180.3054,138.4,2.1875,0.636,4.316,66.85,14.375,0.8712
67,147,"Purnea","Banmankhi","Jhalighat",25.87609,87.11287,6.25,0.1,0.59,206.3388,147.8,2.8125,0.696,2.11,113.725,0.05,1.1088
68,148,"Purnea","Banmankhi","Rampur Tilak",25.86158,87.09942,6.07,0.2,0.61,453.174,145.2,5.9375,1.348,3.574,126.775,14.275,0.5544
69,149,"Purnea","Banmankhi","Rupouli milik",25.84805,87.07481,8.09,0.21,0.46,241.05,119.6,3.4375,0.628,2.362,36.3,7.425,0.4752
70,150,"Purnea","Banmankhi","Ladugarh",25.82731,87.09819,6.57,0.19,0.63,285.4032,178.8,4.375,1.138,3.056,78.025,9.625,0.5148
71,151,"Purnea","Barhara Kothi","Latraha",25.82,87.08403,7.48,0.22,0.44,203.4462,313.2,5.3125,0.936,2.828,56.45,4.85,0.594
72,152,"Purnea","Barhara Kothi","Dibara",25.82087,87.0717,6.37,0.1,0.48,173.556,119.6,2.8125,0.484,2.098,77.85,6.55,0.594
73,153,"Purnea","Barhara Kothi","Paras Tola",25.81198,87.07254,7.62,0.32,0.63,263.2266,114.2,3.4375,0.46,4.054,34.575,9.8,0.0792
74,154,"Purnea","Barhara Kothi","Mulkiya",25.79968,87.06272,6.27,0.12,0.38,233.3364,150.5,2.5,1.144,5.918,283.225,45.75,1.7028
75,155,"Purnea","Barhara Kothi","Gopi Nagar Parsa",25.77813,87.06902,7.75,0.19,0.37,110.883,139.8,3.125,0.522,3.34,42.05,9,0.6732
76,156,"Purnea","Barhara Kothi","Gouripur",25.7741,87.06267,7,0.27,0.72,159.093,196.2,2.8125,0.654,3.56,80.4,4.325,0.4356
77,157,"Purnea","Barhara Kothi","Matihani",25.7621,87.04741,6.28,0.15,0.51,148.4868,142.5,43.75,0.606,3.036,85.025,10.6,0.7524
78,158,"Purnea","Barhara Kothi","Raghubansh Nagar",25.75034,87.06256,5.17,0.12,0.28,549.594,251.3,4.0625,0.892,1.504,107.2,8.525,0.3564
79,159,"Purnea","Barhara Kothi","Maldiya Mehta Toli",25.71404,87.07412,5.77,0.16,0.59,502.3482,127.7,2.5,0.744,3.52,166.425,27.675,0.99
80,160,"Purnea","Barhara Kothi","Shantinagar",25.73326,87.07613,6.5,0.17,0.61,147.5226,135.7,37.5,0.634,2.372,44.075,25.425,0.594
81,161,"Purnea","Barhara Kothi","Barna",25.73354,87.082,5.74,0.04,0.4,196.6968,73.9,34.375,0.604,2.67,238.225,0.925,0.69
82,162,"Purnea","Barhara Kothi","Arbanna",25.73147,87.09604,5.97,0.16,0.67,289.26,325.2,4.0625,1.462,3.32,200.85,16.825,0.7524
83,163,"Purnea","Barhara Kothi","Aurlaha",25.73672,87.10045,5.76,0.08,0.48,291.1884,180.1,5.9375,2.234,2.59,195.475,10.175,0.8316
84,164,"Purnea","Barhara Kothi","Basudeopur",25.76312,87.09986,5.22,0.11,0.67,277.6896,123.6,10.3125,1.13,3.058,295.15,31.4,0.9108
85,165,"Purnea","Barhara Kothi","Barhara",25.77455,87.09885,5.88,0.1,0.66,223.6944,165.3,15.9,1.176,2.276,228.925,12.75,0.7128
86,166,"Purnea","Barhara Kothi","Sukhsena",25.79062,87.10597,5.25,0.12,0.41,216.945,212.4,2.8125,0.63,2.538,260.4,6.875,1.2276
87,167,"Purnea","Barhara Kothi","Jaynagar",25.75835,87.1168,5.66,0.07,0.53,106.062,279.6,3.75,0.844,5.236,305.9,12.625,0.6732
88,168,"Purnea","Barhara Kothi","Thari",25.75312,87.15046,5.42,0.07,0.45,105.0978,139.8,11.5625,0.984,3.034,196.2,14.85,0.8316
89,193,"Purnea","Bhawanipur","Bhawanipur",25.64475,87.13025,6.68,0.27,0.757281553,445.4604,790.3,8.9,4.992,3.534,90.625,25.175,0.71
90,194,"Purnea","Bhawanipur","Birsel",25.64171,87.11725,6.99,0.07,0.334951456,406.8924,418,2.1875,1.65,5.4,243.35,27.85,0.63
91,195,"Purnea","Bhawanipur","Shahidganj (Askatia)",25.6488,87.09781,5.78,0.07,0.830097087,395.322,401.9,0.3125,2.748,8.394,275.4,37.5,0.79
92,196,"Purnea","Bhawanipur","Basantpur Chintaman",25.6483,87.0805,5.33,0.05,0.422330097,234.3006,223.1,48.125,0.7,3.848,228.775,12.425,1.66
93,197,"Purnea","Bhawanipur","Taliari",25.63155,87.11785,5.73,0.2,0.451456311,795.465,486.5,1.875,1.602,1.898,157.2,13.425,0.95
94,198,"Purnea","Bhawanipur","Jawe",25.62877,87.11513,6.6,1.48,0.742718447,595.8756,1796.9,0.625,2.228,3.244,122.725,16.9,0.48
95,199,"Purnea","Bhawanipur","Barhari",25.60301,87.10089,6.8,0.21,0.582524272,433.89,1239.2,0.625,1.772,2.028,134.3,14.35,0.95
96,200,"Purnea","Bhawanipur","Lathi",25.60634,87.08395,6.3,0.14,0.538834951,437.7468,297,2.5,0.954,2.884,145.625,15.375,0.79
97,201,"Purnea","Bhawanipur","Raghunathpur",25.61398,87.09356,6.2,0.16,0.451456311,308.544,244.6,7.8125,0.804,2.052,139.625,2.75,0.95
98,202,"Purnea","Bhawanipur","Jhankua",25.59613,87.11254,6.53,0.13,0.422330097,116.6682,182.8,2.8125,0.898,1.526,87.675,3.675,0.55
99,268,"Purnea","Dagarua","Belgachhi (Gandwas)",25.84025,87.68251,5.33,0.04,0.525,107.9904,110.208,23.4375,1.224,2.94,180.444,16.852,0.9504
100,269,"Purnea","Dagarua","Belgachhi west",25.8311,87.66905,4.98,0.09,0.675,143.6658,182.784,23.75,1.7,3.144,181.632,10.34,0.4752
101,270,"Purnea","Dagarua","Buwari",25.82022,87.65115,5.4,0.04,0.195,92.5632,106.176,23.75,0.662,1.762,147.004,50.138,0.396
102,271,"Purnea","Dagarua","Dagarua",25.8133,87.6342,5.17,0.06,0.525,200.5536,180.096,20.9375,1.122,2.18,193.622,10.406,0.7128
103,272,"Purnea","Dagarua","Mahthor",25.81694,87.62256,5.58,0.04,0.48,191.8758,100.8,21.25,1.062,1.018,151.58,6.314,0.792
104,273,"Purnea","Dagarua","Simariya (Mathor)",25.84038,87.60909,5.78,0.08,0.465,204.4104,170.688,23.75,0.598,1.486,189.992,8.074,0.9504
105,274,"Purnea","Dagarua","Echalo",25.84629,87.60783,5.64,0.07,0.555,294.081,141.12,29.0625,2.71,2.77,205.238,8.228,1.188
106,275,"Purnea","Dagarua","Karyaidh",25.85266,87.62027,7.22,0.1,0.6,189.9474,108.864,26.25,0.548,2.488,111.672,28.27,0.6336
107,276,"Purnea","Dagarua","Asjah",25.87895,87.64009,5.89,0.11,0.525,211.1598,154.56,20.625,1.234,4.308,198.066,20.944,0.8712
108,277,"Purnea","Dagarua","Hathibanda",25.88586,87.64184,6.99,0.09,0.704081633,95.4558,118.272,26.875,1.692,2.644,126.434,25.388,0.7128
109,278,"Purnea","Dagarua","Toli",25.90262,87.6365,5.97,0.06,0.260204082,101.241,102.144,22.8125,0.488,1.142,135.608,17.666,0.792
110,296,"Purnea","Dagarua","Harkheli",25.83431,87.57978,5.12,0.04,0.520408163,224.6586,149.184,18.125,0.728,0.68,134.332,2.134,0.8712
111,297,"Purnea","Dagarua","Rampur (Telia)",25.78863,87.59627,5.33,0.06,0.352040816,227.5512,123.648,13.75,0.778,3.526,169.092,4.114,1.1088
112,298,"Purnea","Dagarua","Kohila (Majhua)",25.7832,87.6159,5.11,0.04,0.306122449,197.661,166.656,12.1875,0.564,0.856,136.18,1.826,1.1088
113,299,"Purnea","Dagarua","Dariyapur",25.75663,87.63969,6.4,0.09,0.413265306,88.7064,104.832,17.5,0.438,1.852,141.79,30.624,0.5544
114,300,"Purnea","Dagarua","Adkeli (Bhakhri)",25.75878,87.652,5.06,0.06,0.505102041,344.2194,145.152,12.8125,2.496,2.612,208.142,11.418,1.188
115,301,"Purnea","Dagarua","Bhabhni (Belwari)",25.73643,87.66939,7.86,0.12,0.290816327,98.3484,130.368,8.125,0.436,1.886,74.69,6.732,0.5544
116,133,"Purnea","Dhamdaha","Sarsi",25.85258,87.29593,5.11,0.18,0.47,351.933,164,5.625,1.226,2.084,252.925,10.1,0.4752
117,169,"Purnea","Dhamdaha","Chandhari",25.74782,87.16135,5.9,0.08,0.41,241.05,135.7,13.4375,0.602,1.304,108.15,1.275,0.9108
118,170,"Purnea","Dhamdaha","Dhakua",25.71861,87.17696,6.24,0.08,0.5,403.0356,282.2,2.8125,1.666,1.94,103.075,5.3,0.8316
119,171,"Purnea","Dhamdaha","Nirpur",25.71409,87.16219,5.94,0.14,0.63,226.587,357.5,16.25,0.806,4.308,312.9,3.9,0.6732
120,172,"Purnea","Dhamdaha","Bishanpur",25.71031,87.15633,6.07,0.2,0.888349515,163.914,301.1,19.375,1.42,7.066,284.25,31.95,0.7524
121,173,"Purnea","Dhamdaha","Kishanpur Balwa",25.67758,87.15194,6.57,0.12,0.567961165,265.155,364.2,3.125,1.076,3.006,130.025,15.125,0.99
122,174,"Purnea","Dhamdaha","Kukroun east",25.67733,87.16212,6.34,0.1,0.451456311,226.587,250,4.375,1.092,1.854,148.625,10.975,0.6732
123,175,"Purnea","Dhamdaha","Kukroun west",25.67751,87.16562,4.8,0.1,1.033980583,134.988,286.3,22.5,1.776,8.528,64.7,13.175,0.0792
124,176,"Purnea","Dhamdaha","Bardella",25.67437,87.20382,7.93,0.27,0.699029126,221.766,262.1,4.375,0.782,3.648,42.6,14.35,1.11
125,177,"Purnea","Dhamdaha","Etahari",25.67253,87.21229,7.61,1.25,0.888349515,139.809,537.6,125.625,1.324,4.326,148.925,9.375,0.95
126,178,"Purnea","Dhamdaha","Mogaliya Purandaha",25.68542,87.22563,7.25,0.31,0.859223301,270.9402,395.1,28.125,1.634,4.072,112.7,21.8,0.71
127,179,"Purnea","Dhamdaha","Kunwari",25.67982,87.23108,8.03,0.17,0.349514563,85.8138,164,3.125,0.442,1.832,33.675,11.3,0.4
128,180,"Purnea","Dhamdaha","Tharauni",25.70464,87.20712,6.04,0.14,0.509708738,124.3818,233.9,7.1875,0.642,5.28,190.725,22.2,0.95
129,182,"Purnea","Dhamdaha","Baraha Kona",25.7652,87.31844,5.31,0.46,0.684466019,813.7848,818.5,5,4.08,3.764,209.225,55.4,0.48
130,183,"Purnea","Dhamdaha","Chikni Dumariya",25.79284,87.30476,5.74,0.04,0.36407767,260.334,168,10,0.548,1.636,170.725,19.45,2.3
131,184,"Purnea","Dhamdaha","Parasmani",25.82883,87.29906,5.71,0.1,0.538834951,480.1716,224.4,5,0.512,1.544,241.525,4.25,0.75
132,185,"Purnea","Dhamdaha","Champawati",25.8055,87.26982,5.29,0.05,0.567961165,309.5082,241.9,12.5,0.95,5.046,247.875,5.025,0.63
133,186,"Purnea","Dhamdaha","Damaili",25.77298,87.26935,5.68,0.07,0.684466019,530.31,217.7,12.1875,1.436,2.806,260.25,19.3,0.59
134,187,"Purnea","Dhamdaha","Rupaspur Kagha (Dakaita)",25.75482,87.27743,4.94,0.35,0.567961165,356.754,244.6,10.9375,1.016,3.672,248.5,25.625,0.71
135,188,"Purnea","Dhamdaha","Rangpura",25.74481,87.28947,4.48,0.17,0.669902913,424.248,227.1,5.625,4.912,5.308,265.75,10.85,0.87
136,189,"Purnea","Dhamdaha","Meerganj",25.7432,87.26863,5.67,0.15,0.538834951,254.5488,243.3,0.9375,1.222,4.008,216.825,36.375,0.71
137,190,"Purnea","Dhamdaha","Gharari",25.74704,87.24483,7.28,0.1,0.145631068,270.9402,524.2,0.625,0.324,0.734,44.925,3.8,0.63
138,191,"Purnea","Dhamdaha","Dhamdaha east",25.74355,87.21604,6.82,0.11,0.480582524,172.5918,207,1.5625,0.724,2.896,125.975,16.125,0.48
139,192,"Purnea","Dhamdaha","Sakhua Tola",25.66012,87.14042,6.54,0.28,0.553398058,516.8112,643.8,34.375,2.092,1.672,96.35,6.175,0.71
140,337,"Purnea","Jalalgarh","Baisa Seema",25.91711,87.53915,6.01,0.08,0.611940299,564.057,188.16,11.6,1.9,2.492,169.95,16.17,0.4
141,338,"Purnea","Jalalgarh","Jalalgarh",25.94774,87.53297,5.55,0.07,0.47761194,252.6204,266.112,8.1,1.128,3.44,197.164,29.084,0.79
142,339,"Purnea","Jalalgarh","Dansar (Kankhodiya)",25.97252,87.51429,5.74,0.07,0.462686567,290.2242,151.872,16.9,0.518,2.402,138.138,38.984,0.95
143,340,"Purnea","Jalalgarh","Nij Gehunwa",25.97493,87.50991,6.05,0.06,0.447761194,86.778,147.84,8.4,0.506,2.516,135.894,35.398,0.87
144,341,"Purnea","Jalalgarh","Sarsauni",25.96454,87.47188,5.35,0.05,0.402985075,160.0572,102.144,6.6,0.472,1.246,145.222,8.866,1.11
145,342,"Purnea","Jalalgarh","Dimiya (Kamalpur)",25.96926,87.46077,4.96,0.09,0.567164179,89.6706,157.248,8.4,1.032,3.574,206.998,20.614,1.43
146,343,"Purnea","Jalalgarh","Southa",25.93036,87.48806,6.58,0.09,0.358208955,93.5274,241.92,4.7,0.87,1.58,119.614,22.77,0.24
147,344,"Purnea","Jalalgarh","Ramdaili (Katheli)",25.9572,87.55681,6.84,0.06,0.313432836,132.0954,142.464,10.3,0.422,1.486,53.988,20.438,0.04
148,345,"Purnea","Jalalgarh","Akamba",25.97046,87.56842,6.17,0.06,0.343283582,143.8,233.856,1.6,1.092,1.548,113.366,11.528,0.24
149,346,"Purnea","Jalalgarh","Hansi Begampur",25.94006,87.55681,5.7,0.03,0.268656716,99.3,162.624,1.6,0.966,1.152,112.618,1.826,0.95
150,122,"Purnea","K.Nagar","Ganeshpur",25.75954,87.36352,5.95,0.18,0.57,120.525,108.9,15.6,0.686,1.76,90.875,15.775,0.7128
151,123,"Purnea","K.Nagar","Kajha",25.76005,87.36317,7.52,2.78,0.45,186.0906,231.2,14.8,1.19,3.628,31.7,11.475,0.792
152,124,"Purnea","K.Nagar","Parora",25.7779,87.35575,4.89,0.15,0.45,493.6704,155.9,2.1875,1.74,1.702,212.075,8.225,0.8712
153,126,"Purnea","K.Nagar","Jhunni Istambrar",25.81607,87.44648,4.49,0.38,0.41,247.7994,240.6,19.6875,1.73,0.926,97.15,16,1.188
154,127,"Purnea","K.Nagar","Bela Rikabganj",25.82854,87.459,5.11,0.06,0.48,258.4056,209.7,5.625,0.616,1.15,159.4,4.325,1.2672
155,128,"Purnea","K.Nagar","K.Nagar",25.8237,87.39103,5.17,0.39,0.37,263.2266,157.2,17.1875,1.792,4.104,265.625,24.6,1.1088
156,129,"Purnea","K.Nagar","Bhokraha",25.82923,87.38497,5.55,0.13,0.64,114.7398,186.8,2.1875,0.68,0.79,127.8,15.1,1.0296
157,130,"Purnea","K.Nagar","Islampur",25.83517,87.36419,4.75,0.07,0.5,154.272,130.4,8.75,0.518,2.32,198,5.375,0.4752
158,131,"Purnea","K.Nagar","Bahiapatti",25.83808,87.35394,5.57,0.06,0.51,338.4342,170.7,3.4375,1.21,0.664,101.825,4.325,0.6336
159,132,"Purnea","K.Nagar","Gokulpur",25.84547,87.32762,5.57,0.07,0.51,547.6656,164,2.5,1.642,1.154,142.775,9.275,0.792
160,181,"Purnea","K.Nagar","Alamnagar",25.76302,87.34092,5.9,0.06,0.334951456,134.0238,209.7,56.5625,0.628,2.568,189.85,23.375,0.87
161,317,"Purnea","K.Nagar","Bela Rikabganj (Baghmara)",25.81648,87.47771,5.59,0.12,0.512562814,70.3866,138.432,9.0625,0.312,1.636,95.04,5.544,0.55
162,318,"Purnea","K.Nagar","Bela Rikabgabganj",25.82478,87.47226,5.44,0.29,0.693467337,296.0094,232.512,21.875,0.838,2.192,187.308,7.194,0.71
163,319,"Purnea","K.Nagar","Garhia Jhunni",25.84571,87.4566,5.24,0.15,0.587939698,352.8972,100,1.875,0.782,1.156,157.388,0.638,0.87
164,288,"Purnea","Kasba","Kharaiya",25.93321,87.61032,6.22,0.04,0.551020408,145.5942,100.8,25.3125,0.576,2.646,157.278,47.366,0.8712
165,289,"Purnea","Kasba","Bochgoan",25.92454,87.6031,6.03,0.06,0.428571429,141.7374,151.872,26.25,0.602,2.034,148.236,17.402,0.8712
166,290,"Purnea","Kasba","Ghaski",25.90878,87.59485,5.35,0.17,0.168367347,169.6992,139.776,22.8125,0.766,2.37,166.408,9.988,0.0792
167,291,"Purnea","Kasba","Malharia (Ratan soti)",25.89202,87.5897,6.86,0.08,0.474489796,116.6682,80.64,22.8125,0.754,2.166,104.566,16.28,0.396
168,292,"Purnea","Kasba","Kullakhas (Gandhinagar)",25.88152,87.57382,5.3,0.05,0.459183673,160.0572,116.928,18.125,2.26,2.402,164.032,18.084,0.8712
169,293,"Purnea","Kasba","Kasba",25.86875,87.54057,5.78,0.03,0.428571429,171.6276,177.408,35,0.64,0.536,86.526,3.058,1.1088
170,294,"Purnea","Kasba","Shabdalpur (Dangraha)",25.82546,87.55455,5.37,0.18,0.658163265,172.5918,96.768,18.125,0.742,2.428,80.542,13.662,1.1088
171,295,"Purnea","Kasba","Shabdalpur",25.83303,87.56495,5.68,0.05,0.428571429,202.482,223.104,12,0.662,2.322,177.914,47.784,1.0296
172,331,"Purnea","Kasba","Sadhubeli",25.89178,87.43682,6.26,0.33,0.48241206,168.735,94.08,27.8125,0.514,1.428,66.022,14.806,0.32
173,332,"Purnea","Kasba","Baneli",25.91055,87.44758,5.18,0.08,0.618090452,212.5,196.224,12.5,0.826,3.12,193.116,10.714,0.48
174,333,"Purnea","Kasba","Gurhi ( Jeevan Toli)",25.89609,87.4728,5.21,0.06,0.618090452,132.8,141.12,13.1,0.818,8.484,190.256,16.852,0.16
175,334,"Purnea","Kasba","Bhamra Lagan",25.88711,87.49114,6.35,0.11,0.587939698,211.4,87.36,25.9,0.602,3.522,157.608,33,1.03
176,335,"Purnea","Kasba","Ghordor (Suruchia)",25.89752,87.52334,6.08,0.05,0.328358209,397.2504,146.496,8.1,1.506,2.068,137.808,6.16,0.16
177,336,"Purnea","Kasba","Bareta",25.89748,87.52403,6.06,0.14,0.567164179,334.5774,290.304,9.7,1.536,1.26,89.672,5.28,0.48
178,302,"Purnea","Purnea","Goura",25.70859,87.62489,6.02,0.1,0.612244898,328.7922,329.28,10.3125,1.834,1.968,171.666,16.28,1.0296
179,303,"Purnea","Purnea","Bikrampur (Mahendrapur)",25.71475,87.61305,5.57,0.04,0.137755102,100.2768,123.648,12.1875,0.696,2.198,168.74,31.658,1.8612
180,304,"Purnea","Purnea","Bhoga Kariyat (Giyaagachi)",25.71743,87.59101,5.02,0.09,0.214285714,117.6324,71.232,18.75,0.36,0.866,126.676,3.982,0.6336
181,305,"Purnea","Purnea","Maharajpur (Manjheli)",25.72408,87.57362,5.41,0.27,0.336734694,116.6682,135.744,30.3125,0.864,1.36,141.02,13.332,0.792
182,306,"Purnea","Purnea","Rajiganj (Birpur Lokhra)",25.73768,87.55874,5.46,0.08,0.708542714,179.3412,204.288,12.1875,0.924,5.974,213.356,27.236,0.8712
183,307,"Purnea","Purnea","Birpur",25.75115,87.55192,5.24,0.09,0.43718593,112.8114,98.112,8.4375,0.574,1.96,158.664,18.15,0.4752
184,308,"Purnea","Purnea","Abdulla Nagar",25.78354,87.54104,5.11,0.07,0.67839196,306.6156,329.28,12.1875,1.642,4.328,205.876,3.784,1.3464
185,309,"Purnea","Purnea","Hansda",25.79322,87.52963,5.2,0.05,0.693467337,181.2696,166.656,13.4375,1.254,3.036,185.218,4.818,0.792
186,310,"Purnea","Purnea","Sikandarpur",25.81834,87.54748,6.68,0.06,0.467336683,235.2648,135.744,18.125,0.702,2.59,167.684,27.17,0.7128
187,311,"Purnea","Purnea","Belori",25.76915,87.52567,6.14,0.18,0.753768844,170.6634,260.736,12.8125,1.134,2.44,154.594,6.974,1.4256
188,312,"Purnea","Purnea","Maranga East",25.75327,87.48758,4.84,0.17,0.572864322,114.7398,126.336,12.1875,0.442,1.532,109.736,12.562,0.8712
189,313,"Purnea","Purnea","Lalganj",25.74388,87.48458,5.06,0.05,0.286432161,187.9,120.96,14.6875,0.788,0.378,73.414,1.364,0.7128
190,314,"Purnea","Purnea","Maranga West",25.74969,87.46397,5.68,0.1,0.67839196,205.3746,211.008,20.625,0.768,2.828,186.186,5.654,0.71
191,315,"Purnea","Purnea","Harda",25.71237,87.45506,5.37,0.1,0.798994975,293.1168,360.192,16.875,1.928,4.2,199.804,5.808,0.63
192,316,"Purnea","Purnea","Kabaiya",25.70745,87.46188,4.66,0.25,0.572864322,248.7636,350.784,18.125,0.918,2.612,149.534,15.686,0.79
193,203,"Purnea","Rupouli","Singhpur Diyara (Jhalari)",25.58902,87.12955,5.85,0.12,0.626213592,178.377,332,2.1875,1.22,1.544,111.075,13.325,1.1088
194,204,"Purnea","Rupouli","Rupouli",25.57691,87.15464,5.89,0.31,0.538834951,110.883,274.2,5.625,1.664,1.97,96.725,10.225,1.0296
195,205,"Purnea","Rupouli","Birauli",25.57393,87.15942,6.01,0.18,0.451456311,366.396,184.1,2.5,1.198,1.994,119.225,9.6,0.7524
196,206,"Purnea","Rupouli","Dhobgidha",25.56686,87.16815,6.65,0.19,0.422330097,340.3626,145.2,23.125,0.794,0.86,56.925,5.45,1.1088
197,207,"Purnea","Rupouli","Tiltanga",25.54929,87.17805,7.58,0.62,0.436893204,262.2624,375,3.4375,1.094,2.806,66.375,16.1,1.1088
198,208,"Purnea","Rupouli","Dhusar Tikapatti (Teldhiya)",25.536,87.17992,6.15,0.1,0.888349515,350.0046,208.3,11.5625,1.41,1.002,128.15,3.275,0.9504
199,209,"Purnea","Rupouli","Tikapatti",25.51984,87.21115,7.95,0.18,0.305825243,193.8042,298.4,3.75,0.738,5.176,87.025,9.475,0.9108
200,210,"Purnea","Rupouli","Nav Tolia",25.55268,87.18403,6.61,0.5,0.844660194,151.3794,788.9,19.375,1.016,1.38,87.475,18.1,0.5544
201,211,"Purnea","Rupouli","Goriyar East (Tin Tanga)",25.55399,87.19673,6.02,0.05,0.626213592,824.391,1193.5,46.5625,2.28,3.01,175.9,54.9,0.792
202,212,"Purnea","Rupouli","Goriyar East",25.55516,87.21343,5.02,1.32,0.36407767,197.661,192.2,2.8125,0.96,2.406,222.05,39.775,0.8316
203,213,"Purnea","Rupouli","Basantpur",25.55726,87.22979,5.78,0.55,0.684466019,104.1336,216.4,2.5,0.632,3.6,173.125,26.1,0.9108
204,214,"Purnea","Rupouli","Giddha",25.57928,87.17579,6.42,0.04,0.626213592,568.878,434.1,3.4375,2.238,1.782,96.85,15.275,0.8712
205,215,"Purnea","Rupouli","Rampur Parihat",25.60487,87.19181,6.2,0.3,0.567961165,259.3698,211,38.75,1.038,1.912,109.925,16.525,1.0296
206,216,"Purnea","Rupouli","Mateli Khemchand",25.56014,87.1485,5.47,0.21,0.597087379,615.1596,237.9,3.75,0.888,2.236,94.225,6.175,1.5048
207,217,"Purnea","Rupouli","Dobha Milki (Gual Para)",25.55193,87.14512,7.31,0.09,0.669902913,160.0572,303.7,3.4375,1.268,3.07,144.3,17.725,0.792
208,218,"Purnea","Rupouli","Nathpur (Bauhuti)",25.52004,87.10877,6.29,0.07,0.087378641,89.6706,103.5,5.9375,0.366,0.608,41.025,25.1,0.99
209,219,"Purnea","Rupouli","Nathpur",25.50125,87.12535,6.86,0.04,0.597087379,93.5274,194.9,2.5,2.062,2.112,201.96,40.414,0.9108
210,220,"Purnea","Rupouli","Knap",25.49626,87.13138,5.92,0.06,0.597087379,132.0954,202.9,2.8125,0.582,1.248,58.52,0.044,0.9108
211,221,"Purnea","Rupouli","Rhouwa Parwal",25.48714,87.14927,6.17,0.2,0.504950495,236.229,356.2,2.5,1.136,3.386,163.13,14.718,0.792
212,222,"Purnea","Rupouli","Malpur Mohanpur",25.48946,87.1132,5.47,0.05,0.400990099,160.0572,166.7,10,0.614,1.948,126.412,6.666,1.9008
213,223,"Purnea","Rupouli","Knap (Mohanpur)",25.49293,87.11105,6.18,0.14,0.579207921,499.4556,693.5,3.4375,3.846,2.154,101.97,10.252,1.8216
214,320,"Purnea","Singhiya","Garhiya Balwa",25.86632,87.43861,5.44,0.19,0.422110553,156.2004,138.432,16.25,0.476,0.94,132.594,3.256,0.63
215,321,"Purnea","Singhiya","Sarra Bathna ",25.88233,87.42827,7.95,0.32,0.497487437,158.1288,95.424,13.4375,0.426,1.25,60.456,5.544,0.79
216,322,"Purnea","Singhiya","Khutti Hasaili (Khatha)",25.88935,87.42348,5.08,0.06,0.43718593,279.618,150.528,12.8125,2.198,0.82,119.922,3.058,0.87
217,323,"Purnea","Singhiya","Jagaili",25.90615,87.41128,6.1,0.1,0.527638191,191.5,165.312,17.8125,0.656,1.84,156.596,4.554,0.55
218,324,"Purnea","Singhiya","Srinagar",25.92885,87.39346,5.6,0.05,0.422110553,200.5536,163.968,12.5,0.548,0.47,58.344,3.036,0.55
219,325,"Purnea","Singhiya","Khutti Dhunaili (Baidyanath Nagar)",25.93803,87.38639,5.29,0.04,0.391959799,340.3626,84.672,4.6875,1.176,0.47,97.768,4.708,0.63
220,326,"Purnea","Singhiya","Chanka (Santnagar)",25.9502,87.37758,5.08,0.06,0.331658291,491.742,124.992,9.375,0.872,0.796,120.164,4.576,0.87
221,327,"Purnea","Singhiya","Singhia (Sishwa)",25.96003,87.37047,5.63,0.04,0.527638191,78.1002,138.432,13.75,0.406,2.038,144.826,7.92,0.95
222,328,"Purnea","Singhiya","Singhiya  ",25.9651,87.36717,5.3,0.07,0.407035176,123.4176,172.032,8.125,0.756,2.43,177.056,25.85,0.71
223,329,"Purnea","Singhiya","Khokha Uttar (Kufrel)",25.95879,87.40369,7.39,0.54,0.286432161,366.396,1895.04,63.125,0.864,0.636,78.826,13.42,1.03
224,330,"Purnea","Singhiya","Khokha Dakshin",25.95826,87.40718,6.12,0.09,0.603015075,122.4534,145.152,15.9375,0.604,2.144,119.24,21.23,0.55
225,350,"Araria","Araria","Chatar",26.00422,87.51211,5.1,0.19,0.37,87.7,211,5.9,3.17,0.83,38.9,10.9,0.16
226,351,"Araria","Araria","Lahtora",26.0263,87.50357,5,0.13,0.52,82.9,188.2,10.9,0.92,3.1,125.5,51.9,0.2
227,352,"Araria","Araria","Kusiyargoan",26.04495,87.49209,5.1,0.08,0.43,47.2,149.2,2.8,0.63,0.6,38.2,8.4,0.36
228,353,"Araria","Araria","Diyaganj",26.07112,87.47815,4.9,0.13,0.86,313.4,321.2,3.1,2.65,6.06,372.3,19.3,0.63
229,354,"Araria","Araria","Rampur Kodar Katti",26.08085,87.4759,5.5,0.06,0.47,52.1,173.4,5,0.54,1.87,63.1,10.2,0.48
230,355,"Araria","Araria","Dhakia",26.02575,87.46107,6.6,0.12,0.48,38.6,189.7,2.8,0.53,1.98,36,23.1,0.79
231,356,"Araria","Araria","Paiktola",26.01594,87.45808,5.2,0.19,0.67,125.3,174.7,22.5,0.88,3.31,241.5,65.6,1.19
232,357,"Araria","Araria","Gaira",26.00208,87.4541,5.6,0.12,0.78,60.7,168,5,0.64,4.58,201.5,25.7,0.87
233,358,"Araria","Araria","Pharotha",26.02263,87.45218,5.2,0.14,0.72,83.9,108.9,2.5,1.89,4.69,249,45.2,0.55
234,359,"Araria","Araria","Pakariya",26.02758,87.44795,5.5,0.06,0.62,247.8,121,6.9,1.35,3.87,347,44.5,0.79
235,360,"Araria","Araria","Kamaldaha",26.07003,87.43527,5.4,0.21,0.58,584.3,221.8,8.8,2.94,4.56,303.8,66,0.32
236,361,"Araria","Araria","Chandardei",26.08603,87.41361,6.3,0.12,0.65,35.7,83.3,6.9,0.39,2.31,29.3,29,0.4
237,362,"Araria","Araria","Khairuganj",26.07227,87.4024,6.4,0.11,0.65,55,98.1,11.6,0.49,2.82,67.6,52.2,0.59
238,363,"Araria","Araria","Hayatpur",26.09937,87.41101,5.6,0.21,0.83,69.4,291.6,17.8,1.35,6.43,126.4,9.6,0.44
239,364,"Araria","Araria","Araria Basti",26.12308,87.45335,5.4,0.08,0.69,60.7,177.4,4.7,0.72,4.6,166.6,24.1,0.71
240,365,"Araria","Araria","Gaiyari",26.08686,87.48081,5.4,0.03,0.62,75.2,149.2,1.3,0.53,1.34,76.6,3.9,0.32
241,366,"Araria","Araria","Baturbari",26.22952,87.47678,4.7,0.21,0.96,72.3,321.2,5.3,1.29,4.92,261.8,38.5,0.95
242,367,"Araria","Araria","Pategna",26.25594,87.4582,5.2,0.15,0.86,97.4,935.4,11.3,1.41,5.74,315,14.2,0.79
243,368,"Araria","Araria","Palasi Pategna",26.2597,87.45551,5.4,0.21,0.52,46.3,83.3,2.8,0.44,2.14,134.6,12,0.32
244,369,"Araria","Araria","Dabhra",26.30776,87.43585,6,0.12,0.61,126.3,255.4,6.6,1.19,2.04,269.5,16.8,0.71
245,370,"Araria","Kursakanta","Sonapur",26.32856,87.43389,6.7,0.29,0.86,36.6,174.7,17.5,0.81,4.1,36,17.4,0.79
246,371,"Araria","Kursakanta","Kamaldaha",26.33819,87.43234,6.1,0.17,0.4,75.2,180.1,4.1,0.56,2.91,91.4,38.9,0.55
247,372,"Araria","Kursakanta","Kursakanta",26.35794,87.44363,6.6,0.27,0.71,34.7,131.7,10.6,0.53,3.27,34.6,22.1,0.48
248,373,"Araria","Kursakanta","Kuari",26.40367,87.44007,5.7,0.16,1.08,92.6,201.6,7.2,0.72,5.02,159.8,21.7,0.63
249,374,"Araria","Kursakanta","Sisabari",26.39823,87.44322,5.8,0.2,0.67,70.4,115.6,1.9,0.59,2.79,118.2,41.4,1.03
250,375,"Araria","Kursakanta","Khesral",26.3612,87.43151,5.4,0.22,0.59,58.8,104.8,0.9,0.66,1.91,136,12.1,0.83
251,376,"Araria","Kursakanta","Balchanda",26.37295,87.41581,5.9,0.17,0.65,786.8,326.6,2.8,3.89,4.22,189.2,35.1,0.54
252,377,"Araria","Kursakanta","Harira",26.38113,87.40308,5.3,0.12,0.92,95.5,310.5,2.2,1.16,5.26,241.1,19.3,0.63
253,378,"Araria","Kursakanta","Sundri",26.38474,87.38563,7.1,0.17,0.52,176.4,213.7,3.1,0.52,3.62,62.3,13.1,0.87
254,379,"Araria","Kursakanta","Rajaula",26.38624,87.37167,5,0.18,0.71,216,247.3,20.3,1.78,5.42,362,21.1,0.24
255,380,"Araria","Kursakanta","Madhubani",26.39559,87.37474,6,0.09,0.44,266.1,290.3,2.8,1.31,3.73,238.4,35.7,1.03
256,381,"Araria","Kursakanta","Kaparphora",26.34986,87.41901,4.9,0.21,0.61,74.2,196.2,11.6,0.8,2.85,178.1,40.1,0.79
257,382,"Araria","Kursakanta","Kariha",26.33811,87.37907,6.7,0.1,0.37,34.7,118.3,13.4,0.38,1.53,29.9,14.7,0.24
258,383,"Araria","Kursakanta","Parasi",26.33551,87.34429,7.7,0.31,0.96,58.8,250,2.8,0.57,6.02,41.5,26.1,1.03
259,384,"Araria","Kursakanta","Siktiya",26.3368,87.36007,5.5,0.14,1.36,60.7,563.1,16.3,0.94,6.15,75.4,5,0.67
260,385,"Araria","Kursakanta","Laxmipur",26.33364,87.40492,6.6,0.34,0.78,88.7,587.3,19.4,1.35,4,114.1,35.2,1.5
261,386,"Araria","Kursakanta","Haldhara",26.31758,87.40757,7.2,0.21,0.7,139.8,247.3,3.1,1.39,3.3,56.5,15.7,1.39
262,387,"Araria","Kursakanta","Rahatmina",26.28836,87.40241,7.2,0.25,0.62,50.1,165.3,4.4,0.56,4.18,34.5,11.8,0.59
263,388,"Araria","Kursakanta","Musahri",26.28719,87.42369,6.1,0.24,0.69,82.9,186.8,22.5,0.64,3.96,113.6,31.5,1.19
264,389,"Araria","Kursakanta","Sourgoan",26.26395,87.40467,6.1,0.33,0.88,80,500,4.4,1.19,5.54,146.9,58.8,1.03
265,390,"Araria","Araria","Khamgara",26.28982,87.46514,5.7,0.2,0.85,150.4,102.1,16.3,2.22,3.33,214,31.3,0.87
266,391,"Araria","Araria","Jamua",26.29143,87.4795,5.8,0.18,0.43,36.6,261.8,13.4,0.56,1.89,80.2,40.2,0.75
267,392,"Araria","Sikti","Benga",26.28739,87.50306,4.9,0.14,0.62,61.7,133.1,12.8,0.7,2.74,158.2,13.2,0.63
268,393,"Araria","Sikti","Kahwari",26.29548,87.50694,4.4,0.3,1.02,260.3,423.4,17.8,3.29,6.17,430.3,36.9,0.71
269,394,"Araria","Sikti","Dehua",26.31548,87.51045,4.8,0.22,0.67,191.9,639.7,12.5,1.77,3.1,347.8,56.3,0.95
270,395,"Araria","Sikti","Bardaha",26.3269,87.5145,5.2,0.1,0.58,202.5,170.7,63.1,1.67,2.99,332,42.6,0.79
271,396,"Araria","Sikti","Thengapur Pipra",26.34751,87.50668,4.4,0.24,0.62,119.6,220.4,15.9,0.98,1.96,287.8,69.2,0.71
272,397,"Araria","Sikti","Masunda",26.3557,87.50882,5.4,0.29,0.84,343.3,408.6,27.8,3.34,4.34,270.5,74.4,0.95
273,398,"Araria","Sikti","Bhirbhiri",26.35978,87.50857,5.7,0.14,0.73,107,190.8,12.5,0.81,2.49,125.3,29.9,0.91
274,399,"Araria","Sikti","Bhutaha",26.3857,87.52287,4.7,0.22,0.72,132.1,201.6,13.1,0.76,2.51,216.6,37.7,0.95
275,400,"Araria","Sikti","Muraripur",26.40096,87.52272,4.6,0.14,0.85,138.8,325.2,25.9,1.71,3.43,257.5,36.4,1.82
276,401,"Araria","Sikti","Bholani",26.40911,87.50335,4.7,0.2,0.93,173.6,307.8,20.3,1.03,2.81,212.8,56.2,1.19
277,402,"Araria","Sikti","Amgacchi",26.41139,87.47809,5.6,0.07,0.62,99.3,154.6,22.5,0.96,1.58,141.1,28.8,1.03
278,403,"Araria","Sikti","Dahipaura",26.42422,87.46821,5.6,0.23,0.79,139.8,169.9,23.4,1.11,4.36,269.8,34.7,1.35
279,404,"Araria","Sikti","Sikti",26.40087,87.55476,4.8,0.21,0.53,173.6,211,23.8,3.33,3.09,172.2,28.5,5.54
280,405,"Araria","Sikti","Dahgama",26.37104,87.56996,5,0.11,0.52,144.6,150.5,23.8,0.98,2.37,94,24.5,0.79
281,406,"Araria","Sikti","Pararia",26.36097,87.57662,5.9,1.05,1.11,142.7,588.7,20.9,1.75,4.92,241.3,42.5,1.19
282,407,"Araria","Palasi","Dhapri",26.32174,87.59177,5.2,0.29,0.69,152.3,301.1,21.3,1.68,3.98,136.6,41.7,1.11
283,408,"Araria","Palasi","Pipra Bijwar",26.3112,87.5924,5.1,0.23,0.43,108,212.4,23.8,0.84,1.96,222.2,15.4,1.19
284,409,"Araria","Palasi","Dighli",26.31093,87.59725,4.8,0.11,0.65,58.8,107.5,13.4,1.16,2.94,204.8,17.4,0.95
285,410,"Araria","Palasi","Charamna",26.31626,87.60646,4.6,0.1,0.43,163.9,146.5,18.1,2.34,2.58,256.5,46.8,0.51
286,411,"Araria","Palasi","Balua Kaliyaganj",26.3285,87.62206,5.1,0.11,0.41,123.4,73.9,12.8,0.67,2.03,437.5,42.9,1.35
287,412,"Araria","Palasi","Mehro Chauk",26.29431,87.58669,4.8,0.12,0.49,112.8,177.4,12.2,1.34,1.97,187.8,32.3,1.66
288,413,"Araria","Palasi","Kankhudia",26.28729,87.58752,4.5,0.16,0.51,218.9,211,14.7,1.55,1.64,229.5,26.2,1.03
289,414,"Araria","Palasi","Chauri",26.27738,87.61411,4.6,0.13,0.47,123.4,247.3,20.6,1.54,1.61,197.8,24.8,1.19
290,415,"Araria","Palasi","Baradbatta",26.27626,87.61727,4.2,0.37,0.51,150.4,207,16.9,0.93,2.41,136.6,17.4,0.95
291,416,"Araria","Palasi","Bhatiya",26.27783,87.63449,4.3,0.18,0.49,111.8,151.9,18.1,1.03,1.8,124.9,14.7,1.03
292,417,"Araria","Palasi","Miyanpur",26.26888,87.64574,4.6,0.13,0.44,82,149.2,16.3,0.95,0.98,279.5,50.1,1.11
293,418,"Araria","Palasi","Kujri",26.25397,87.6455,4.5,0.19,0.54,122.5,198.9,13.4,2.33,3.33,264,27.9,2.06
294,419,"Araria","Palasi","Chandipur",26.21344,87.63087,4.8,0.16,0.4,164.9,131.7,12.8,1.75,2.12,205.4,15.3,0.87
295,420,"Araria","Palasi","Kathora",26.20902,87.66221,4.8,0.11,0.55,163.9,178.8,17.8,1.1,2.6,127.9,34.5,1.03
296,421,"Araria","Palasi","Khapra",26.20238,87.67255,5.8,0.13,0.37,114.7,510.7,12.5,1.81,2.02,242.5,39.9,1.11
297,422,"Araria","Palasi","Daulatpur",26.20086,87.66655,5.2,0.36,0.41,303.7,388.4,20.6,1.32,1.42,160.5,67,1.27
298,423,"Araria","Palasi","Dala",26.22477,87.60143,5.3,0.2,0.4,220.8,310.5,16.9,0.81,1.58,206.2,24.7,1.19
299,424,"Araria","Palasi","Pakri",26.20018,87.6019,4.8,0.16,0.55,218.9,141.1,18.1,0.8,2.86,14,8.8,1.03
300,425,"Araria","Farbisganj","Pothia",26.22218,87.30847,6.4,0.28,0.21,100.3,780.9,29.4,0.55,0.87,129.3,17.2,0.95
301,426,"Araria","Farbisganj","Dholbajja",26.2518,87.27255,5.6,0.12,0.57,128.2,129,30.6,1.08,3.07,96.6,14.5,0.75
302,427,"Araria","Farbisganj","Farbisganj",26.28219,87.26606,5.6,0.11,0.61,140.8,247.3,14.4,0.91,3.44,114.3,3.3,0.59
303,429,"Araria","Farbisganj","Matiarai",26.3103,87.2476,4.5,0.51,0.32,324.9,383,26.6,3.03,2.12,152.9,10.8,1.54
304,430,"Araria","Farbisganj","Bathnaha",26.32751,87.24555,5.2,0.13,0.41,136.9,325.2,28.1,0.92,2.88,231.5,13.8,0.59
305,431,"Araria","Farbisganj","Mirganj",26.36705,87.23459,4.6,0.11,0.7,119.6,254,33.4,1.12,5.01,292.3,20.9,0.83
306,432,"Araria","Farbisganj","Amouna",26.3666,87.22492,5.1,0.15,0.47,508.1,387.1,22.8,2.25,3.72,95.9,20.5,0.75
307,433,"Araria","Narpatganj","Sonapur",26.37316,87.21064,4.5,0.32,0.57,1.9,395.1,29.7,3.09,1.05,84.9,10.1,0.99
308,434,"Araria","Farbisganj","Baidynathpur",26.36045,87.27045,6.1,0.21,0.66,183.2,307.8,85.3,0.69,3.45,62.3,16.4,0.83
309,435,"Araria","Farbisganj","Majhua",26.29704,87.29125,4.3,0.4,0.49,79.1,229.8,44.7,0.78,0.59,218,34.6,0.59
310,436,"Araria","Farbisganj","Parbha",26.29945,87.30074,4.8,0.72,0.69,199.6,422,20.3,1.99,4.29,403.5,17.2,0.75
311,437,"Araria","Farbisganj","Amhara",26.28519,87.31873,4.3,0.87,0.58,73.3,556.4,25.3,2.92,4.37,89.9,7.4,2.26
312,438,"Araria","Farbisganj","Khairkhan",26.27674,87.3344,4.4,0.14,0.51,155.2,286.3,26.3,0.48,0.7,130.4,11.4,0.91
313,439,"Araria","Farbisganj","Ramai",26.25166,87.3717,5.1,0.14,0.57,140.8,481.2,22.8,0.69,2.73,212.2,21.4,1.15
314,440,"Araria","Farbisganj","Khawaspur",26.24298,87.38376,6.3,0.06,0.28,341.3,358.8,22.8,0.79,2.94,28.4,4.4,0.83
315,441,"Araria","Farbisganj","Gajlakshmipur",26.21476,87.40671,5.8,0.04,0.32,138.8,79.3,18.1,0.24,0.59,333,20.1,1.23
316,442,"Araria","Farbisganj","Purandaha",26.19662,87.40566,4.6,0.27,0.96,177.4,262.1,35,1.73,6.74,130.6,19.7,1.07
317,443,"Araria","Farbisganj","Halhalia",26.18309,87.36856,5.1,0.12,0.66,52.1,154.6,18.1,0.53,2.36,84.4,8.6,0.83
318,444,"Araria","Farbisganj","Bokra",26.17982,87.36245,4.9,0.08,0.43,204.4,201.6,12,0.76,1.26,60.6,4.5,0.59
319,445,"Araria","Farbisganj","Musahari",26.22855,87.26586,6,0.15,0.35,118.6,127.7,18.1,0.54,1.86,238.6,12,0.91
320,446,"Araria","Farbisganj","Rampur",26.21349,87.2461,5.6,0.36,0.44,297.9,327.9,13.8,0.75,2.42,114.3,19.1,0.75
321,447,"Araria","Farbisganj","Saifganj",26.21292,87.22714,4.8,0.11,0.41,540.9,330.6,12.2,1.04,0.44,57.5,7.6,0.67
322,448,"Araria","Farbisganj","Bhagparwaha",26.22373,87.22415,5.4,0.09,0.36,105.1,365.6,17.5,0.98,1.34,99.9,6.4,1.07
323,449,"Araria","Farbisganj","Parwaha",26.2455,87.2293,5.1,0.1,0.44,105.1,260.7,12.8,0.55,2.51,121.4,4.7,1.07
324,450,"Araria","Farbisganj","Haripur",26.25524,87.23086,4.9,0.06,0.41,139.8,88.7,17.8,0.74,1.63,130.7,1.3,1.23
325,452,"Araria","Narpatganj","Palasi",26.31477,87.23975,4.3,0.24,0.39,168.7,286.3,44.7,0.67,1.52,100.4,11.4,0.67
326,453,"Araria","Narpatganj","Bhanghi",26.3584,87.19396,3.7,0.14,0.47,136,243.3,20.3,1.08,2.94,157.9,6.3,0.95
327,454,"Araria","Narpatganj","Laxmipur",26.37697,87.1356,4,0.18,0.27,73.3,157.2,5.3,0.41,1.17,94.5,3.5,1.35
328,455,"Araria","Narpatganj","Manikpur",26.40824,87.12995,3.6,0.23,0.39,104.1,301.1,11.3,0.4,0.72,51.6,8.5,1.11
329,456,"Araria","Narpatganj","Pathraha",26.43429,87.10273,6.4,0.4,0.6,204.4,341.4,8.1,1.3,3.39,19.2,15.7,0.99
330,457,"Araria","Narpatganj","Ghurna",26.46063,87.08246,5.1,0.23,0.57,118.6,272.3,63.1,1.84,2.28,32.8,6.9,0.63
331,458,"Araria","Narpatganj","Maheshpatti",26.4627,87.07803,4.1,0.12,0.65,109,235.2,15.9,0.53,2.64,71,23.9,1.27
332,459,"Araria","Narpatganj","Basmatiya",26.5199,87.07335,4,0.24,0.14,159.1,250,27.8,1.31,2.71,45.8,7.8,0.55
333,460,"Araria","Narpatganj","Bela",26.5403,87.06722,3.9,0.08,0.84,40.5,112.9,12.5,0.36,0.99,26.2,4.4,1.19
334,461,"Araria","Narpatganj","Anchara",26.3925,87.08324,3.1,0.16,0.44,88.7,341.4,13.1,0.87,4.88,173.5,10.6,1.43
335,462,"Araria","Narpatganj","Madhura North",26.37552,87.1009,5.6,0.1,0.93,44.4,192.2,25.9,0.66,3.38,122,9.7,0.79
336,463,"Araria","Narpatganj","Narpatganj",26.33722,87.1096,6.6,0.28,0.24,214.1,194.9,8.1,0.89,2.91,42.4,7.9,0.55
337,464,"Araria","Narpatganj","Khaira",26.3318,87.1439,6.4,0.17,0.74,103.2,190.8,9.7,0.49,2.06,44.3,4.8,0.75
338,466,"Araria","Araria","Hariya",26.17355,87.4129,5.6,0.06,0.41,85.8,223.1,11.6,0.66,0.84,35.4,3.8,1.19
339,467,"Araria","Narpatganj","Nathpur",26.31543,87.10212,6,0.12,0.44,130.2,393.8,17.5,0.61,2.34,62.1,1.8,0.55
340,468,"Araria","Narpatganj","Barhara",26.31103,87.10393,5.3,0.1,0.44,219.8,239.2,10.3,0.59,2.71,223.6,4,1.11
341,469,"Araria","Narpatganj","Fatehpur",26.28676,87.09827,4.9,0.09,0.36,101.2,317.2,12.2,0.73,1.13,59.5,5.9,0.57
342,470,"Araria","Narpatganj","Pithoura",26.25845,87.08931,6.1,0.22,0.95,71.4,250,18.8,0.6,4.41,165.7,4.4,0.63
343,471,"Araria","Narpatganj","Gokhlapur",26.24136,87.10258,7.5,0.33,0.44,287.3,164,30.3,0.52,2.69,40.5,5.8,0.51
344,472,"Araria","Narpatganj","Mirdaul",26.22836,87.11329,5.8,0.09,0.71,109.9,189.8,12.2,1.3,5.53,51.6,21.5,0.71
345,474,"Araria","Narpatganj","Pharhi",26.25276,87.13642,5.3,0.17,0.39,114.7,211.5,8.4,0.4,3.81,19.6,3,0.16
346,475,"Araria","Narpatganj","Ramghat Koshkapur",26.2771,87.13396,4.9,0.09,0.84,189.9,240.6,12.2,1.57,3.49,112.9,2.5,0.63
347,476,"Araria","Narpatganj","Kanehli",26.26987,87.17785,5.5,0.24,0.51,496.6,127.7,13.4,0.43,2.74,138.5,2.1,0.55
348,477,"Araria","Narpatganj","Khabdah",26.2675,87.18453,5.1,0.13,0.42,125.3,263.4,18.1,1.98,5.94,299.8,18.8,4.91
349,478,"Araria","Narpatganj","Rewahi",26.26881,87.19348,4.5,0.05,0.5,90.6,146.5,12.8,0.51,2.81,135.3,6.8,0.83
350,479,"Araria","Farbisganj","Mirzapur",26.18634,87.23459,5.2,0.1,0.25,266.1,166.7,12.2,0.79,1.02,103,13.9,0.48
351,480,"Araria","Farbisganj","Laxmipur",26.18633,87.23456,6,0.13,0.5,77.1,207,14.7,0.59,1.28,71.1,12,0.04
352,481,"Araria","Raniganj","Dumariya",26.13433,87.23644,5.2,0.04,0.47,67.5,166.7,20.6,0.41,2.75,84.2,14.4,2.73
353,482,"Araria","Raniganj","Hasanpur",26.10767,87.23171,5.9,0.1,0.57,129.2,130.4,16.9,0.8,1.51,135.2,4.5,0.95
354,483,"Araria","Raniganj","Raniganj",26.08788,87.24604,4.9,0.17,0.5,101.2,104.8,18.1,0.33,1.64,66.9,13.3,0.24
355,484,"Araria","Raniganj","Rampur",26.09106,87.25692,5.5,0.05,0.65,123.4,178.8,9.1,0.97,3.27,184.9,38.3,0.67
356,485,"Araria","Raniganj","Thakpura",26.0932,87.2784,4.8,0.14,0.44,100.3,141.1,21.9,0.4,1.66,91.2,3.9,0.4
357,486,"Araria","Raniganj","Kamalpur",26.09544,87.29733,4.6,0.18,0.38,191.9,196.2,1.9,0.54,1.92,162.1,8,0.99
358,487,"Araria","Raniganj","Kajra",26.10948,87.28753,4.9,0.11,0.62,452.2,358.8,16.3,1.54,3.93,182.4,10.4,0.16
359,488,"Araria","Raniganj","Vishanpur",26.13813,87.2699,5.7,0.18,0.49,125.3,284.9,13.4,1.31,1.77,155.8,13.3,1.11
360,489,"Araria","Raniganj","Gunwanti",26.06996,87.31749,5.7,0.12,0.66,88.7,111.6,12.8,1.04,4.4,123.8,26.8,0.91
361,490,"Araria","Raniganj","Basaiti",26.02379,87.33606,4.8,0.1,0.56,132.1,181.4,17.8,0.54,3.68,95.8,47.9,0.63
362,491,"Araria","Raniganj","Bounsi",26.00382,87.34706,5.9,0.11,0.38,205.4,227.1,12.5,0.42,1.06,80.3,5.8,3.8
363,492,"Araria","Raniganj","Farkiya",25.97963,87.37525,5,0.1,0.43,78.1,220.4,4.7,0.6,0.87,62.3,7.5,0.71
364,493,"Araria","Raniganj","Dhobaniya",26.0012,87.37982,6.4,0.17,0.54,230.4,149.2,9.4,1.82,2.91,27.9,19.4,0.51
365,494,"Araria","Raniganj","Kabaiya",26.0233,87.37524,5.5,0.18,0.62,427.1,135.7,13.8,0.95,4.02,199.8,34.8,1.39
366,495,"Araria","Raniganj","Mohni",26.03103,87.36713,6.1,0.16,0.62,147.5,432.8,9.7,3.85,3.82,135.3,37.7,0.1
367,496,"Araria","Raniganj","Karahiya",26.05176,87.37102,4.9,0.27,0.65,98.6,219.1,11.6,0.64,3.23,196.5,31.4,0.87
368,497,"Araria","Raniganj","Mirzapur",26.07376,87.38195,5.1,0.16,0.62,118.6,235.2,17.5,1.48,4.07,326,18.1,0.99
369,498,"Araria","Raniganj","Raghunathpur",26.12647,87.39887,5.7,0.12,0.71,215,384.4,10.3,2.69,3,115.2,19.2,1.62
370,499,"Araria","Raniganj","Rupaili",26.11847,87.38376,5,0.18,0.53,238.2,294.3,12.2,0.83,4.12,255,30,1.15
371,500,"Araria","Raniganj","Chhatiaouna",26.116,87.36376,5.6,0.28,0.65,84.8,125,18.8,0.52,3.18,160.5,20.2,1.19
372,501,"Araria","Raniganj","Kharhat",26.10713,87.34125,4.8,0.21,0.68,144.6,213.7,30.3,1.2,5.52,275.5,12.1,0.28
373,502,"Araria","Raniganj","Kupari",26.11814,87.32429,5.1,0.07,0.29,189,190.8,20.6,0.47,1.91,156.5,5.6,0.87
374,503,"Araria","Raniganj","Puhunsara",26.06348,87.29048,4.6,0.2,0.32,153.3,133.1,16.9,0.46,1.64,111.3,3,0.91
375,504,"Araria","Raniganj","Barbanna",26.0813,87.22617,5.3,0.06,0.5,153.3,196.2,18.1,0.72,4.99,208.5,8.7,0.63
376,505,"Araria","Raniganj","Bagulaha",26.05865,87.21548,4.7,0.21,0.53,255.5,323.9,18.8,1.56,6.9,304.3,10.9,0.59
377,506,"Araria","Bhargama","Manullahpatti",26.07838,87.19789,8,0.84,0.44,181.3,166.7,30.3,0.71,4.35,24.2,12.9,0.24
378,507,"Araria","Bhargama","Rampur aadi",26.06767,87.176,8,0.35,0.34,175.5,149.2,12.2,0.43,3.17,17.5,13.5,0.55
379,508,"Araria","Bhargama","Bhargama",26.07484,87.14745,6.3,0.12,0.32,144.6,224.4,20.3,0.87,3.16,69.8,2.7,0.12
380,509,"Araria","Bhargama","Paikpar",26.09275,87.14425,5.8,0.16,0.44,134,190.8,22.5,0.94,4.69,160.3,10.5,0.24
381,510,"Araria","Bhargama","Raghunathpur South",26.09863,87.13917,5.9,0.36,0.8,213.1,250,27.8,1.25,1.96,129,12.3,1.31
382,511,"Araria","Bhargama","Raghunathpur North",26.11856,87.12609,4.9,0.24,0.47,263.2,411.3,12.5,1.36,3.84,212.9,7.3,0.99
383,512,"Araria","Bhargama","Mahtawa",26.1352,87.13044,5.1,0.24,0.7,270.9,174.7,13.1,0.86,5.43,180.2,4.9,0.16
384,513,"Araria","Bhargama","Mahtawa",26.13913,87.13298,6.9,0.45,0.81,384.7,159.9,25.9,0.51,4.86,43.5,16.9,1.11
385,514,"Araria","Bhargama","Jainagar",26.15923,87.13401,6,0.34,0.78,378.9,486.5,25.9,1.33,6.24,129.2,14,0.71
386,515,"Araria","Bhargama","Kushmaul",26.17964,87.11708,7,0.35,0.6,345.2,142.5,8.1,0.46,3.83,31.7,3.4,0.16
387,516,"Araria","Bhargama","Shankarpur",26.16662,87.14842,5.6,0.06,0.17,255.5,102.1,9.7,0.32,1.54,49.9,8.4,0.79
388,517,"Araria","Bhargama","Sirsiya Kala",26.12732,87.1164,5.1,0.07,0.12,423.3,79.3,11.6,0.35,1.14,91.2,2.1,0.87
389,518,"Araria","Bhargama","Khajuri",26.06025,87.13237,7.4,0.43,1.1,147.5,337.3,17.5,1.08,6.74,17.6,2.9,0.12
390,519,"Araria","Bhargama","Khutha Baijhnathpur",26.02992,87.11696,5.5,0.16,0.47,166.8,333.3,10.3,0.75,5.61,163.4,15.8,0.63
391,520,"Araria","Bhargama","Dhaneshwari",25.98947,87.13183,5.8,0.12,0.7,181.3,283.6,12.2,2.05,4.01,211.5,14.3,1.11
392,521,"Araria","Bhargama","Naya Bhargama",25.97643,87.13701,4.9,0.08,0.44,138.8,123.6,20.3,0.5,2.43,124,6,0.16
393,522,"Araria","Bhargama","Birnagar East",25.98622,87.11544,7.2,0.05,0.21,137.9,79.3,22.5,0.32,1.28,29.5,12.6,1.11
394,523,"Araria","Bhargama","Vishaharia",25.97966,87.09471,6.1,0.13,0.47,71.4,219.1,23.4,0.44,3.79,87.9,7.7,0.63
395,524,"Araria","Araria","Rajokhar",26.12362,87.4102,4.8,0.14,0.54,109.9,189.5,23.8,0.59,2.92,92.7,27.9,0.32
396,525,"Araria","Jokihat","Sisouna",26.12098,87.46134,5.1,0.11,0.55,82.9,231.2,16.3,0.49,3.48,111.2,28.1,0.16
397,526,"Araria","Araria","Mirzabhak",26.12039,87.48697,5.1,0.1,0.38,247.8,184.1,18.1,0.73,1.55,121.3,15.8,0.44
398,527,"Araria","Araria","Azmatpur",26.13507,87.49375,5,0.18,0.47,186.1,246,20.6,1.3,5.58,282.3,74.7,0.36
399,529,"Araria","Jokihat","Bhangiya",26.15022,87.53451,5.2,0.13,0.41,130.2,161.3,21.3,2.18,3.46,136.4,35.3,0.59
400,530,"Araria","Jokihat","Bajgama",26.14844,87.54834,5,0.23,0.66,136.9,428.7,16.9,1.56,7.29,319.8,60,0.16
401,531,"Araria","Jokihat","Kakan",26.149,87.56229,6.5,0.16,0.51,254.5,154.6,18.1,0.46,3.37,114.2,34.8,0.75
402,532,"Araria","Jokihat","Sherlangha",26.13852,87.57284,7.4,0.23,0.54,112.8,205.6,9.1,0.41,2.8,29.4,14.8,0.91
403,533,"Araria","Jokihat","Bagdahra",26.1217,87.57777,5.6,0.08,0.49,121.5,130.4,21.9,0.68,3.22,183.2,28.1,0.75
404,534,"Araria","Jokihat","Matiyari",26.11519,87.58394,5.1,0.13,0.52,90.6,135.7,1.9,0.74,2.73,127.4,39.7,0.51
405,535,"Araria","Jokihat","Girda",26.12728,87.61386,5.6,0.14,0.46,161,114.2,16.3,0.84,1.77,120.1,31.8,0.24
406,536,"Araria","Jokihat","Chakai",26.09198,87.59769,5,0.09,0.58,187.1,111.6,13.4,0.59,1.69,99.7,7.2,0.67
407,537,"Araria","Jokihat","Chirah",26.09663,87.57822,5.8,0.45,0.37,594.9,318.5,12.8,1.05,1.26,85.1,17.2,0.12
408,538,"Araria","Jokihat","Gairki Masiriya",26.10439,87.56958,5,0.11,0.4,184.2,194.9,16.3,0.35,0.6,25.6,6.5,0.1
409,539,"Araria","Jokihat","Chariya",26.11231,87.53958,4.9,0.09,0.58,144.6,211,18.1,0.45,1.2,71.1,13.4,0.79
410,540,"Araria","Araria","Belwa",26.11173,87.52121,6.9,0.23,0.29,83.9,154.6,20.6,0.31,1.22,24.9,14.8,0.79
411,541,"Araria","Jokihat","Bhansiya",26.10709,87.52659,5.1,0.08,0.63,591.1,258,21.3,0.91,1.84,122,28.6,0.91
412,542,"Araria","Jokihat","Parsadpur",26.08037,87.53273,5.1,0.12,0.4,179.3,182.8,12.2,0.54,3.08,199.1,22.1,0.99
413,543,"Araria","Jokihat","Chainpur Masuriya",26.05286,87.55953,5.2,0.13,0.46,104.1,122.3,13.4,0.8,3.54,166.3,51.5,0.87
414,544,"Araria","Jokihat","Mahalgaon",26.04858,87.57462,5.5,0.08,0.46,124.4,165.3,18.1,0.59,2.09,119.3,45.9,1.31
415,546,"Araria","Jokihat","Bhuna Majgama",26.01732,87.58516,5.7,0.12,0.55,110.9,278.2,12.8,0.56,4.26,89,54.3,0.62
416,547,"Araria","Jokihat","Ukhba",26.07324,87.59203,5.2,0.08,0.43,249.7,207,12.2,0.54,1.91,151.7,21.7,0.32
417,548,"Araria","Jokihat","Kishanpur",26.08461,87.58828,5.5,0.05,0.31,116.7,241.9,14.7,0.86,2.38,131.4,21.2,0.99
418,550,"Araria","Araria","Bargacchi",26.15174,87.50572,5.2,0.05,0.58,109,228.5,20.6,0.69,1.43,106.5,8.8,0.99
419,551,"Araria","Araria","Budheshwari",26.17219,87.48681,5.1,0.14,0.6,138.8,168,5.9,0.63,3.29,163.8,31.2,0.67
420,552,"Araria","Araria","Rampur Mohanpur West",26.18794,87.48479,5,0.21,0.67,107,380.4,27.5,0.72,3.22,53.2,21.6,0.04
421,553,"Araria","Araria","Bochi",26.20857,87.48254,5.1,0.19,0.46,132.1,137.1,26.9,0.43,1.89,26.7,12.6,0.4
422,555,"Araria","Araria","Khari",26.25274,87.48393,5.7,0.09,0.23,145.6,94.1,29.4,0.42,0.77,44,7,0.67
423,556,"Araria","Araria","Sahasmal",26.25374,87.49666,6.8,0.44,0.41,361.6,376.3,30.6,0.61,3.54,184.4,39.9,0.48
424,557,"Araria","Araria","Kashera",26.23291,87.51344,5.5,0.29,0.75,164.9,223.1,14.4,0.73,3.24,183.4,42.6,0.79
425,558,"Araria","Araria","Taruna",26.24084,87.51121,5.9,0.21,0.51,240.1,161.3,14.7,1.22,4.59,319.5,26.6,0.28
426,NA,"Rohtas"," Bikramganj","Mathiya",25.23630556,84.28838889,5.08,0.104,0.48,29.8902,313.152,6.25,0.74,4.91,206.1,31,0.1584
427,NA,"Rohtas"," Bikramganj","Thiarua",25.24502778,84.3085,4.63,0.128,0.54,110.883,379.008,5,1.38,5.42,249.9,18.6,0.792
428,NA,"Rohtas"," Bikramganj","Varuna",25.22925,84.31308333,6.43,0.193,0.58,33.747,604.8,6.25,0.45,2.73,77.2,42,0.4356
429,NA,"Rohtas"," Bikramganj","Shivpur",25.23597222,84.32063889,6.14,0.83,0.31,41.4606,317.184,7.5,0.52,4.08,122.3,80.8,1.1088
430,NA,"Rohtas"," Bikramganj","Mohni",25.25363889,84.32588889,5.72,0.156,0.52,50.1384,233.856,4.6875,1.06,5.61,189.7,81.7,0.3564
431,NA,"Rohtas"," Bikramganj","Dhava",25.23966667,84.27930556,5.48,0.66,0.5,15.4272,331.968,4.375,0.63,5.34,177.7,32.6,0.7128
432,NA,"Rohtas"," Bikramganj","Murauna",25.25811111,84.27472222,7.21,0.11,0.37,30.8544,837.312,5.625,0.47,3.58,48.4,42.9,1.0296
433,NA,"Rohtas"," Bikramganj","Indrath",25.2635,84.29411111,6.36,0.142,0.44,142.7016,317.184,10.3125,1.15,6.94,172.6,88.3,0.6732
434,NA,"Rohtas"," Bikramganj","Kharua",25.26605556,84.16908333,5.73,0.46,0.49,125.346,206.976,1.25,2.81,7.65,189.1,108.7,0.396
435,NA,"Rohtas"," Bikramganj","Laruyi",25.24927778,84.17133333,5.78,0.5,0.49,85.8138,44.352,6.25,0.59,5.38,177.4,39.1,0.1584
436,NA,"Rohtas"," Bikramganj","Jalha",25.25083333,84.20186111,6.52,0.136,0.75,60.7446,576.576,1.25,0.91,4.61,86.1,52,0.8316
437,NA,"Rohtas"," Bikramganj","Nonhar",25.22813889,84.22547222,6.75,0.124,0.4,27.9618,185.472,5.9375,0.5,3.94,51.7,100.7,0.0792
438,NA,"Rohtas"," Bikramganj","Radiya",25.20341667,84.24152778,6.86,0.145,0.2,308.544,228.48,4.0625,0.86,5.63,175.3,74.4,0.6732
439,NA,"Rohtas"," Bikramganj","Parsa",25.20269444,84.20969444,5.6,0.134,0.705,0.7504,260.74,41.563,1.424,5.572,40.475,30.5,0.317
440,NA,"Rohtas"," Bikramganj","Milki",25.21391667,84.21177778,6.32,0.79,0.585,4.9928,786.24,3.438,0.784,3.558,56.15,19.975,0.8712
441,NA,"Rohtas"," Bikramganj","Khiraudharpur",25.22519444,84.16794444,7.79,0.237,0.57,1.84623,249.98,12.188,0.572,2.67,54.45,70.65,0.2376
442,NA,"Rohtas"," Bikramganj","Chusiyakhurd",25.19169444,84.24086111,7.2,0.1,0.75,0.72,198.91,8.438,1.512,6.61,158.4,97.125,0.5544
443,NA,"Rohtas"," Bikramganj","Laxmanpur",25.176,84.22458333,5.25,0.92,0.48,41.4606,166.656,6.25,0.86,5.76,136.6,95.1,0.1584
444,NA,"Rohtas"," Bikramganj","Mani",25.16416667,84.22694444,5.31,0.68,0.42,108.9546,158.592,4.6875,0.78,5.23,214.7,49.7,0.594
445,NA,"Rohtas"," Bikramganj","Bahuara",25.22897222,84.19063889,6.28,0.253,0.41,41.4606,67.2,2.1875,0.45,3.34,105.3,55,0.6732
446,NA,"Rohtas","Akodhi Gola","Dharhara",24.96302778,84.21533333,6.68,0.65,0.4,64.6014,196.224,0.625,0.71,3.87,91.5,55.9,5.544
447,NA,"Rohtas","Akodhi Gola","Akodhi",24.98513889,84.1915,6.98,0.59,0.21,29.8902,154.56,3.125,0.37,1.47,28.8,48.7,0.3168
448,NA,"Rohtas","Akodhi Gola","Chandi ",24.97483333,84.14947222,7.2,0.53,0.67,150.4152,227.136,1.875,0.508,2.622,76.55,52.6,0.792
449,NA,"Rohtas","Akodhi Gola","Jorwarpur",24.96913889,84.16380556,5.73,0.6,0.18,161.0214,110.208,1.875,0.74,3.89,214.5,61,0.3168
450,NA,"Rohtas","Akodhi Gola","Baradipul",24.97258333,84.17830556,7.3,0.46,0.48,135.9522,209.664,3.75,0.672,3.248,110.15,8.4,0.039
451,NA,"Rohtas","Akodhi Gola","Legsar Bigaha",24.98358333,84.17847222,5.62,0.44,0.38,228.5154,67.2,1.25,2.47,4.23,245.7,66.4,3.96
452,NA,"Rohtas","Akodhi Gola","Khapra",24.99130556,84.16188889,6.38,0.68,0.42,74.2434,313.152,2.5,0.67,4.66,91.4,66.8,0.2376
453,NA,"Rohtas","Akodhi Gola","Bahuri Bigaha",24.99886111,84.14505556,4.68,0.157,0.4,34.7112,110.208,0.625,0.49,3.9,153.9,9.2,3.96
454,NA,"Rohtas","Akodhi Gola","Bihri Bigaha",24.94280556,84.18663889,6.12,0.62,0.32,55.9236,174.72,1.5625,0.94,4.5,118.4,52.4,0.3168
455,NA,"Rohtas","Akodhi Gola","Bank",24.96016667,84.18713889,5.85,0.53,0.2,34.7112,219.072,3.4375,0.49,1.82,89.3,39.9,0.1584
456,NA,"Rohtas","Akodhi Gola","Baligaon",25.05625,84.23894444,5.54,0.62,0.4,26.9976,96.768,0.625,0.51,3.78,138.6,18.9,7.128
457,NA,"Rohtas","Akodhi Gola","Tendubahar",25.05658333,84.22113889,6.18,0.33,0.54,50.1384,231.168,4.6875,1.84,5.72,153.7,51.9,0.2376
458,NA,"Rohtas","Akodhi Gola","Neema",25.03541667,84.21,5.1,0.153,0.52,44.3532,193.536,1.5625,0.9,5.81,210.1,31.9,7.128
459,NA,"Rohtas","Akodhi Gola","Tatesar",25.02005556,84.20505556,6.39,0.124,0.36,31.8186,208.32,4.375,0.45,3.52,70.4,42.7,0.3168
460,NA,"Rohtas","Akodhi Gola","Bisauli Kala",25.033,84.22855556,7.13,0.1,0.35,72.315,272.832,4.6875,0.81,4.72,164.8,70.8,0.7128
461,NA,"Rohtas","Akodhi Gola","Hawoo dih",25.03394444,84.24394444,6.66,0.78,0.42,53.9952,252.672,1.5625,0.67,3.23,58.8,53.7,4.752
462,NA,"Rohtas","Akodhi Gola","Baghakhoh",25.01525,84.18922222,6.03,0.98,0.4,26.9976,122.304,2.5,0.38,2.54,66.2,44.2,0.2376
463,NA,"Rohtas","Akodhi Gola","Pyarepur",25.01755556,84.16266667,5.95,0.52,0.48,90.6348,157.248,1.875,0.63,5.56,168.4,61.8,4.752
464,NA,"Rohtas","Akodhi Gola","Muriyar",24.99958333,84.21413889,5.62,0.73,0.4,92.5632,196.224,1.5625,0.79,5.53,147.7,104.3,5.544
465,NA,"Rohtas","Akodhi Gola","Nawadih",25.00266667,84.19775,5.72,0.38,0.4,104.1336,153.216,2.1875,0.57,4.3,193.2,29.6,5.544
466,NA,"Rohtas","Chenari","Sadokhar",24.86652778,83.818,7.24,0.215,0.708,1.5566,14.6,2.188,0.854,3.566,50.15,34.95,0.396
467,NA,"Rohtas","Chenari","Jarari ",24.85730556,83.80261111,7.21,0.131,0.376,0.94451,13.7,5,0.622,2.284,60.05,43.775,0.0396
468,NA,"Rohtas","Chenari","Doiya ",24.891,83.77266667,6.12,0.83,0.376,0.50796,11.9,1.563,0.984,1.912,71.025,59.5,1.4652
469,NA,"Rohtas","Chenari","Chenaridih ",24.91888889,83.80111111,7.5,0.138,0.581,1.035,20.9,2.5,1.558,3.804,99.2,21.7,1.3068
470,NA,"Rohtas","Chenari","Chhotka Khurnu",24.87005556,83.83363889,8.3,0.195,0.437,1.6185,12.7,0.625,1.066,3.684,22.7,9.5,0.7524
471,NA,"Rohtas","Chenari","Hata",24.92719444,83.80863889,6.2,0.76,0.435,0.4712,12.4,1.25,0.468,3.106,157.7,11.225,1.3464
472,NA,"Rohtas","Chenari","Debdihi",24.88622222,83.84811111,7.85,0.113,0.581,0.88705,12.4,2.5,0.912,3.394,19.75,13.05,0.792
473,NA,"Rohtas","Chenari","kelarkala ",24.89741667,83.87113889,6.88,0.112,0.725,0.77056,10.5,6.563,0.666,4.752,58.975,36.4,1.0296
474,NA,"Rohtas","Chenari","Narayanpur",24.93908333,83.81836111,7.51,0.187,0.587,1.40437,10.8,3.75,0.618,4.216,58.175,49.45,0.6732
475,NA,"Rohtas","Chenari","Chaukhara",24.94136111,83.83913889,7.62,0.181,0.88,1.37922,15.5,0.625,0.962,3.992,65.425,22.95,1.0692
476,NA,"Rohtas","Chenari","Chenarua",24.99011111,83.82705556,7.68,0.161,0.135,1.23648,9.7,0.625,0.518,1.07,17.5,29.625,0.8712
477,NA,"Rohtas","Chenari","Indrachola",24.93672222,83.82763889,6.5,0.115,0.452,0.7475,10.1,9.063,0.972,5.27,179.6,93.2,0.792
478,NA,"Rohtas","Chenari","Nayakpur",24.85986111,83.77516667,7.48,0.176,0.434,1.31648,19,0.625,0.662,3.262,89.2,53.6,1.3068
479,NA,"Rohtas","Chenari","Kuraba",24.87588889,83.84927778,7.48,0.176,0.587,1.31648,13.1,14.063,0.496,4.486,59.15,30.7,1.3068
480,NA,"Rohtas","Chenari","Pallonda",24.91277778,83.81697222,6.54,0.281,0.452,1.83774,11.7,1.563,0.506,2.452,19.425,11.85,1.5444
481,NA,"Rohtas","Chenari","Malhipur",24.87122222,83.76969444,6.67,0.91,0.256,0.60697,20.2,0.938,0.828,2.52,98.675,61.8,0.99
482,NA,"Rohtas","Chenari","Ugahani",24.86011111,83.78348889,6.36,0.9,0.195,0.5724,59.4,1.25,1.896,4.786,130.3,94.325,0.8316
483,NA,"Rohtas","Chenari","Mathari",24.95541667,83.81144444,6.29,0.87,0.512,0.54723,9.7,2.5,0.63,4.26,103.2,59.5,1.7028
484,NA,"Rohtas","Chenari","Pebandi",24.90844444,83.76466667,5.66,0.94,0.06,0.53204,16.8,0.938,1.24,1.43,48.925,64.9,0.7524
485,NA,"Rohtas","Chenari","Saleya",24.90369444,83.85538889,7.49,0.259,0.286,1.93991,12.6,5,0.87,1.782,11.8,11.3,1.0692
486,NA,"Rohtas","Dawath","Dawath",25.29747222,84.22108333,5.43,0.66,0.48,404.964,506.688,3.75,3.02,11.05,279.5,71.3,1.029
487,NA,"Rohtas","Dawath","Babhnaul",25.32419444,84.22386111,5.69,0.52,0.58,97.3842,201.6,2.1875,0.96,6.6,145.3,37.9,0.7128
488,NA,"Rohtas","Dawath","Janakpur",25.30161111,84.23944444,5.1,0.109,0.45,77.136,182.784,3.4375,0.64,5.32,150.1,23.8,1.584
489,NA,"Rohtas","Dawath","Usri",25.30658333,84.23575,5.01,0.38,0.37,149.451,170.688,0.9375,1.26,8,287.7,33.1,0.4356
490,NA,"Rohtas","Dawath","Yogini",25.32313889,84.24997222,5.24,0.38,0.56,73.2792,119.616,13.4375,1.29,6.26,192.5,75.8,0.4752
491,NA,"Rohtas","Dawath","Kauath",25.32288889,84.26455556,5.72,0.101,0.43,70.3866,73.92,6.875,0.69,5.12,175.8,101,0.6336
492,NA,"Rohtas","Dawath","Chatar",25.30697222,84.28038889,6.44,0.98,0.41,89.6706,240.576,5.3125,0.54,4.61,56.2,61,0.5544
493,NA,"Rohtas","Dawath","Dedhgaon",25.29955556,84.29333333,7.65,0.138,0.45,160.0572,227.136,0.9375,0.57,5.4,52.9,18.1,0.5544
494,NA,"Rohtas","Dawath","Chakchatar",25.32505556,84.28335,6.78,0.124,0.56,90.6348,1991.808,7.5,1.09,6.88,70.9,69.7,0.4752
495,NA,"Rohtas","Dawath","Naktauli",25.32438889,84.297,7.33,0.75,0.54,78.1002,115.584,2.5,0.37,2.25,25.6,32.3,0.396
496,NA,"Rohtas","Dawath","Jhalkhauria",25.33972222,84.27375,6.28,0.7,0.47,117.6324,473.088,5.625,1.09,6.82,79.3,71.8,0.2772
497,NA,"Rohtas","Dawath","Bairiya",25.34577778,84.27511111,6.12,0.72,0.22,101.241,182.784,4.0625,0.69,5.15,84.2,83.3,0.1584
498,NA,"Rohtas","Dawath","Maliyabag",25.33908333,84.21511111,6.22,0.66,0.49,138.8448,198.912,2.1875,0.73,5.58,105.2,30.8,0.594
499,NA,"Rohtas","Dawath","Semri",25.33841667,84.20105556,5,0.58,0.5,241.05,317.184,0.9375,1.12,5.55,118.4,114.3,2.455
500,NA,"Rohtas","Dawath","Dharkana",25.33861111,84.18586111,6.22,0.49,0.39,198.6252,216.384,0.9375,0.54,3.63,81.3,79.7,2.297
501,NA,"Rohtas","Dawath","Jansona",25.33758333,84.17927778,8.08,0.108,0.4,105.0978,241.92,1.875,0.4,1.05,18.4,14.5,0.792
502,NA,"Rohtas","Dawath","Chhitni",25.31375,84.17697222,6.05,0.56,0.57,143.6658,317.184,3.75,0.56,2.11,51.5,34.2,0.396
503,NA,"Rohtas","Dawath","Chatra",25.30722222,84.1685,5.42,0.8,0.64,142.7016,239.232,5.9375,0.69,3.88,142.9,143.5,1.98
504,NA,"Rohtas","Dihri","Maudiha",24.99727778,84.25672222,6.05,0.7,0.46,65.5656,213.696,3.75,0.63,4.48,111.8,34.1,0.9504
505,NA,"Rohtas","Dihri","Barao",25.00938889,84.24894444,6.26,0.61,0.44,43.389,201.6,4.6875,0.41,3.34,84,49.8,1.3464
506,NA,"Rohtas","Dihri","Dakdawandih",24.95711111,84.09136111,5.99,0.58,0.25,63.6372,137.088,0.9375,0.42,2.31,122.7,38.2,0.7128
507,NA,"Rohtas","Dihri","Majiaon",24.98213889,84.24447222,5.47,0.49,0.26,18.3198,188.16,4.0625,0.57,5.8,149.9,31.9,0.8712
508,NA,"Rohtas","Dihri","Darihar",24.97158333,84.23511111,7.65,0.216,0.56,403.0356,438.144,4.375,1.04,4.11,95.7,17.9,2.2176
509,NA,"Rohtas","Dihri","Arjunbigaha",24.96677778,84.24386111,7.63,0.155,0.4,234.3006,521.472,5.3125,1.26,4.02,43,23.3,0.4752
510,NA,"Rohtas","Dihri","Bhaluari",24.88461111,84.1395,6.76,0.117,0.46,231.408,376.32,5.3125,1.35,5.61,125.2,45.4,1.2672
511,NA,"Rohtas","Dihri","Berkap",24.93813889,84.21397222,7.99,0.263,0.46,147.5226,233.856,10,0.68,2.79,40.4,11.9,1.3464
512,NA,"Rohtas","Dihri","Mathuri",24.92444444,84.17661111,5.05,0.09,0.36,493.6704,376.32,5.3125,3.43,7.69,289.6,50.1,1.2672
513,NA,"Rohtas","Dihri","Bheria",24.91069444,84.16333333,5.6,0.125,0.74,69.4224,211.008,3.4375,1.76,5.78,240.9,38.2,0.6336
514,NA,"Rohtas","Dihri","Sidhauli",24.93061111,84.19313889,7.92,0.204,0.56,80.9928,263.424,0.9375,0.66,4.73,49.3,10,1.584
515,NA,"Rohtas","Dihri","Gangauli",24.92736111,84.16936111,5.62,0.085,0.58,20.2482,249.984,0.9375,0.97,6.74,148,79.9,0.396
516,NA,"Rohtas","Dihri","Talwan Bigaha",24.93238889,84.16202778,4.82,0.087,0.5,42.4248,190.848,2.1875,0.94,5.42,221,28.3,1.584
517,NA,"Rohtas","Dihri","Pahleja",24.94116667,84.14616667,6.66,0.203,0.3,69.4224,385.728,5.625,0.74,3.76,82.5,52.9,1.1088
518,NA,"Rohtas","Dihri","Bhausaha",24.89588889,84.15733333,5.57,0.123,0.38,46.2816,137.088,7.1875,0.92,5.81,134.3,27.6,1.1088
519,NA,"Rohtas","Dihri","Mithopur",24.88888889,84.13452778,5.88,1.065,0.32,64.6014,123.648,1.875,1.01,3.76,156.6,33.2,0.4752
520,NA,"Rohtas","Dihri","Bhusaula",24.95375,84.22363889,7.58,0.129,0.38,124.3818,141.12,1.875,0.43,2.4,56.7,22.8,1.2672
521,NA,"Rohtas","Dihri","Katar",24.88061111,84.15266667,6.8,0.1,0.44,64.6014,153.216,3.4375,0.7,4.29,83.6,30.4,1.1088
522,NA,"Rohtas","Dihri","Patnwan",24.85161111,84.12716667,5.78,0.035,0.26,68.4582,55.104,1.5625,0.91,2.86,139.9,8,1.1088
523,NA,"Rohtas","Dihri","Bheripur",24.86694444,84.1415,7.83,0.184,0.42,53.9952,298.368,1.875,0.75,3.25,29.5,20.8,0.2376
524,NA,"Rohtas","Dihri","Kherha",24.90983333,84.15052778,7.35,0.169,0.5,78.1002,209.664,1.5625,0.081,4.16,64.4,20.2,0.6336
525,NA,"Rohtas","Dihri","Patpura",24.90475,84.13625,5.83,0.052,0.3,47.2458,108.864,2.8125,0.7,2.63,124.1,14.5,0.8712
526,NA,"Rohtas","Dihri","Dahaoor",24.91194444,84.13786111,5.89,0.067,0.42,164.8782,104.832,1.875,1.29,3.39,213.3,16.3,0.9504
527,NA,"Rohtas","Dihri","Tenua",24.93580556,84.11933333,5.48,0.056,0.28,50.1384,72.576,0.9375,1.05,2.1,146.5,16.8,1.3464
528,NA,"Rohtas","Dihri","Jamuhar",24.94425,84.10427778,6.05,0.09,0.26,57.852,68.544,6.25,0.5,1.74,127.5,2.8,1.1088
529,NA,"Rohtas","Dihri","Karbandia",24.94813889,84.09683333,5.06,0.104,0.36,36.6396,189.504,5.9375,0.71,3.77,146.3,40.4,1.1088
530,NA,"Rohtas","Dinara","Manoharpur",25.34897222,84.15497222,7.2,0.94,0.681,38.568,517.44,11.563,1.322,6.666,87.275,58.65,0.158
531,NA,"Rohtas","Dinara","Dharkappa",25.29566667,84.10386111,6.9,0.135,0.454,32.783,180.96,6.563,1.37,4.622,56.95,31.575,0.316
532,NA,"Rohtas","Dinara","Jamrod",25.26258333,84.04861111,7.5,0.75,0.651,87.74,409.92,12.5,1.61,5.422,55.525,41.9,0.396
533,NA,"Rohtas","Dinara","Bhadi",25.36116667,84.06927778,6.4,0.105,0.575,102.21,274.17,4.688,3.008,6.888,79.6,87.475,0.752
534,NA,"Rohtas","Dinara","Dibra",25.21230556,84.05058333,7.1,0.105,0.696,46.28,245.95,0.625,1.952,5.18,19.825,16.975,0.475
535,NA,"Rohtas","Dinara","Muswad",25.17947222,84.14561111,6.8,0.94,0.833,28.93,436.8,6.563,1.58,7.638,117.55,113.375,0.039
536,NA,"Rohtas","Dinara","Bhajuni",25.25730556,84.12605556,7.1,0.132,0.075,38.57,194.88,1.875,1.298,3.91,22.775,13.4,0.1584
537,NA,"Rohtas","Dinara","Biruakla",25.22363889,84.12702778,7.9,0.197,0.803,145.59,381.69,10.625,1.56,5.328,50.95,39.45,0.039
538,NA,"Rohtas","Dinara","Bhanpur",25.29147222,84.08019444,7.2,0.126,0.803,829.21,185.47,8.438,1.194,5.194,84.525,89.05,0.0436
539,NA,"Rohtas","Dinara","Gunsej",25.30225,84.16033333,7.5,0.73,0.424,20.25,411.26,0.938,0.842,3.29,25.35,46.425,0.5544
540,NA,"Rohtas","Dinara","Jagdishpur",25.27736111,84.08255556,7.1,0.64,0.575,40.5,196.22,0.438,0.94,4.72,81.175,103.15,0.3564
541,NA,"Rohtas","Dinara","Parasthampur",25.148,84.14052778,6.4,0.72,0.606,48.21,181.44,5.625,0.866,4.772,134.425,89.475,0.039
542,NA,"Rohtas","Dinara","Barua",25.17902778,84.11708333,6.9,0.107,0.696,66.53,544.32,10.625,1.186,3.768,34.25,22.675,0.118
543,NA,"Rohtas","Dinara","Dinara",25.24791667,84.06525,7.1,0.165,0.555,29.89,251.32,3.75,1.134,3.34,25.45,10.5,0.2772
544,NA,"Rohtas","Dinara","Koakhonch",25.28047222,84.05947222,7.1,0.9,0.69,43.39,477.12,0.313,0.934,4.012,46.2,14.4,0.0396
545,NA,"Rohtas","Dinara","Bariyarpur Tola",25.25130556,84.02630556,6.44,0.169,0.75,27,537.6,11.875,0.756,3.876,35.475,14.1,1.6236
546,NA,"Rohtas","Dinara","Karanj",25.26286111,84.09736111,7.65,0.102,0.435,26.03,322.56,6.25,1.066,2.846,23.05,19.9,0.2376
547,NA,"Rohtas","Dinara","Natwar",25.2345,84.15058333,6.78,0.91,0.72,35.68,409.92,6.25,0.928,4.414,50.95,31.475,0.3564
548,NA,"Rohtas","Dinara","Bariha",25.24733333,84.13791667,7.33,0.39,0.48,32.78,408.57,2.188,0.88,3.964,110,115.35,0.3564
549,NA,"Rohtas","Dinara","Sarna",25.27219444,84.12002778,6.28,0.133,0.6,43.39,275.52,3.125,0.776,3.434,34.025,54.2,0.0792
550,NA,"Rohtas","Dinara","Saraw",25.20633333,84.14291667,7.65,0.61,0.75,110.88,220.41,1.875,0.866,4.79,74.225,66.725,0.594
551,NA,"Rohtas","Dinara","Baliya",25.20616667,84.12388889,7.63,0.77,0.84,96.42,235.2,5.313,1.298,7.77,237.3,102.95,0.3564
552,NA,"Rohtas","Dinara","Bhui",25.32497222,84.08952778,6.76,0.115,0.69,65.57,302.4,6.25,0.974,5.872,113,68.5,0.039
553,NA,"Rohtas","Dinara","Isharpura",25.34233333,84.1105,7.99,0.151,0.39,114.74,315.84,7.813,1.224,2.76,42.15,56,0.2772
554,NA,"Rohtas","Dinara","Mednipur",25.36516667,84.1525,5.05,0.98,0.795,104.13,276.86,7.5,0.952,4.782,90.575,32.45,0.6732
555,NA,"Rohtas","Dinara","Girhariya",25.24583333,84.04727778,7.1,0.188,0.6,116.67,247.29,7.188,0.728,2.69,28.25,6.375,0.6336
556,NA,"Rohtas","Dinara","Pachouni",25.25688889,84.10766667,6.8,0.84,0.615,54,232.512,5.625,0.678,3.54,32.75,27.5,0.5544
557,NA,"Rohtas","Dinara","Khanita",25.28855556,84.14405556,6.2,0.86,0.885,78.1,409.92,9.688,0.922,4.248,75.575,46.75,0.3168
558,NA,"Rohtas","Dinara","Dhokhad",25.28191667,84.11055556,7.1,0.169,0.72,45.32,450.24,10.625,0.966,4.444,27.7,29,0.4356
559,NA,"Rohtas","Dinara","Chilbila",25.30752778,84.10044444,7.2,0.182,0.75,60.74,193.53,10.625,1.438,4.382,39.6,29.875,0.594
560,NA,"Rohtas","Dinara","Bisikala",25.35894444,84.11775,6.9,0.188,0.45,35.68,249.98,8.75,0.832,2.992,22.325,32.35,0.3564
561,NA,"Rohtas","Dinara","Akauda",25.23763889,84.02161111,6.8,0.157,0.465,27.96,315.84,4.063,0.756,2.272,14.25,5.75,0.594
562,NA,"Rohtas","Karahgar","Khakhara",25.15425,84.03344444,6.67,0.139,0.74,0.92713,20.3,5,0.672,3.046,48.875,39.2,0.067
563,NA,"Rohtas","Karahgar","Kuriyari",25.06527778,83.91241667,8.7,0.112,0.671,0.9744,17.8,0.625,0.748,4.96,59.575,36.2,1.346
564,NA,"Rohtas","Karahgar","Khoshana",25.07291667,83.84666667,7.69,0.235,0.522,1.80715,23,11.875,1.42,3.812,19,15.425,1.2
565,NA,"Rohtas","Karahgar","Dymara",25.03677778,83.9705,6.31,0.136,0.671,0.85816,22.4,12.5,1.584,7.026,104.85,78.9,1.015
566,NA,"Rohtas","Karahgar","Sarodih",25.08375,83.93947222,8.2,0.146,0.477,1.1972,20.2,1.25,1.51,3.634,14.925,11.725,0.594
567,NA,"Rohtas","Karahgar","Kubertola",25.02580556,84.03330556,6.19,0.012,0.313,0.07428,10.4,0.313,0.516,8.558,78.25,22.75,0.95
568,NA,"Rohtas","Karahgar","Phakila",25.06486111,83.89780556,7.3,0.102,0.686,0.7446,17.3,1.563,3.638,4.358,47.325,21.375,0.198
569,NA,"Rohtas","Karahgar","Bhokhari",25.11861111,83.83575,7.86,0.197,0.582,1.54842,42.3,0.313,0.92,3.752,41.45,16.725,0.554
570,NA,"Rohtas","Karahgar","Bhaluari",25.06555556,83.95077778,8.19,0.185,0.582,1.51515,26.9,0.625,0.752,3.162,27.55,14.875,0.871
571,NA,"Rohtas","Karahgar","Samardiha",25.09608333,83.96283333,7.89,0.15,0.761,1.1835,33.8,0.313,1.056,3.734,32.475,14.375,0.277
572,NA,"Rohtas","Karahgar","Torani",25.06633333,83.87272222,8.12,0.258,0.358,2.09496,36.6,0.625,2.114,3.36,23.4,11.375,1.267
573,NA,"Rohtas","Karahgar","Dimiya",25.14855556,83.91847222,6.33,0.091,0.358,0.57603,15.6,5,0.674,3.898,78.975,102.225,1.821
574,NA,"Rohtas","Karahgar","Sahar",25.13794444,83.84641667,8.03,0.11,0.358,0.8833,17,0.313,1.524,2.516,20.225,11.7,0.91
575,NA,"Rohtas","Karahgar","Simariachalla",25.17397222,83.918,8.13,0.159,0.522,1.29267,20.3,0.313,1.048,3.056,17.05,15.425,1.029
576,NA,"Rohtas","Karahgar","Babhani",25.06094444,84.00041667,6.95,0.159,0.462,1.10505,20.8,0.625,0.612,2.52,59.75,36,1.059
577,NA,"Rohtas","Karahgar","Jalalpur",25.10041667,83.93755556,7.31,0.145,0.611,1.05995,19.9,1.875,0.722,3.442,43.375,18.675,0.118
578,NA,"Rohtas","Karahgar","Bakasara",25.13580556,83.83713889,8.18,0.16,0.761,1.3088,19.9,0.938,1.336,3.656,18.5,12.225,0.633
579,NA,"Rohtas","Karahgar","Akori",25.16772222,84.02988889,7.9,0.121,0.492,0.9559,30.2,1.875,1.436,3.254,20.95,15.425,0.475
580,NA,"Rohtas","Karahgar","Karup",25.07411111,84.01875,8.18,0.138,0.462,1.12884,23.4,0,0.958,4.224,24.775,12.675,1.425
581,NA,"Rohtas","Karahgar","Akatiyarpur",25.08369444,83.83361111,6.66,0.079,0.611,0.52614,19.2,1.563,0.626,0,55.5,79.6,0.079
582,NA,"Rohtas","Karahgar","Siban",25.14936111,83.89519444,8.82,0.16,0.477,1.4112,13.4,1.25,1.196,3.91,30.8,15.45,0.633
583,NA,"Rohtas","Karahgar","Sahuar",25.11583333,83.93375,7.35,0.118,0.611,0.8673,12.4,1.25,1.174,3.042,50.525,24.425,0.079
584,NA,"Rohtas","Karahgar","Tendua",25.07252778,83.99183333,8,0.135,0.701,1.08,20.1,0.625,1.584,4.138,16.225,11.8,0.396
585,NA,"Rohtas","Karahgar","Barhari",25.15966667,84.04116667,7.65,0.16,0.373,1.224,19.5,0.313,3.222,7.094,20.7,19.1,0.752
586,NA,"Rohtas","Karahgar","Pipra",25.10338889,83.97669444,7.74,0.156,0.432,1.20744,25.4,0.625,1.084,5.38,20.275,16.375,0.91
587,NA,"Rohtas","Karahgar","Balirampur",25.04411111,84.02825,7.2,0.08,0.477,0.576,7.3,0.938,2.117,0.48,13.775,42.875,0.95
588,NA,"Rohtas","Karakat","Munji",25.21030556,84.31041667,5.5,0.054,0.16,67.494,17.472,2.1875,0.9,5.37,203.1,87.9,1.5048
589,NA,"Rohtas","Karakat","Goari",25.20094444,84.32086111,7.25,0.077,0.39,31.8186,225.792,2.8125,0.54,2.92,41.2,41.2,0.1584
590,NA,"Rohtas","Karakat","Chiksil",25.19444444,84.34097222,5.08,0.055,0.4,44.3532,184.128,3.75,1.08,5.06,96.4,72.5,0.9504
591,NA,"Rohtas","Karakat","Sakla",25.191,84.37672222,6.93,0.242,0.41,70.3866,124.992,0.9375,0.47,3.36,103.2,54.1,0.8712
592,NA,"Rohtas","Karakat","Ghorandih",25.30194444,84.39377778,7.9,0.152,0.45,26.9976,208.32,8.125,0.39,2.61,49.5,48.5,0.7128
593,NA,"Rohtas","Karakat","Bharkuria",25.17408333,84.38844444,7.92,0.355,0.34,29.8902,158.592,7.5,0.36,2.69,39.4,34.8,0.792
594,NA,"Rohtas","Karakat","Sonbarsa",25.18522222,84.36280556,6.4,0.085,0.38,146.5584,186.816,5,1.15,5.01,106.4,76.6,0.5544
595,NA,"Rohtas","Karakat","Chaugai",25.17813889,84.34877778,5.56,0.078,0.16,38.568,145.152,5.3125,0.54,4.1,107,86,1.2672
596,NA,"Rohtas","Karakat","Kirhi",25.15891667,84.33644444,5.46,0.061,0.26,44.3532,216.384,3.125,0.88,6.1,124.9,107.9,1.2672
597,NA,"Rohtas","Karakat","Amaura",25.14025,84.33041667,5.7,0.096,0.48,206.3388,354.816,4.375,1.77,8.38,207.7,93.5,0.5544
598,NA,"Rohtas","Karakat","Budwal",25.12244444,84.32013889,8.17,0.074,0.34,113.7756,172.032,3.75,1.01,3.4,135,80.8,0.9504
599,NA,"Rohtas","Karakat","Goradi",25.11,84.31155556,5.4,0.045,0.32,41.4606,176.064,3.4375,0.99,5.83,190.4,47.5,0.99
600,NA,"Rohtas","Karakat","Kanh Bahuara",25.09238889,84.3085,5.32,0.131,0.38,23.1408,165.312,3.4375,0.89,4.23,167.4,82.5,0.792
601,NA,"Rohtas","Karakat","Sikaria",25.081,84.34869444,6.02,0.129,0.49,472.458,43.008,3.4375,1.22,5.48,105.3,81.7,0.8712
602,NA,"Rohtas","Karakat","Osaw",25.11261111,84.37280556,5.6,0.06,0.32,24.105,219.072,3.4375,0.7,4.37,130.2,144.2,1.3464
603,NA,"Rohtas","Karakat","Dew",25.11172222,84.36875,5.64,0.089,0.44,27.9618,302.4,1.875,0.92,5.96,172.5,47.9,1.2672
604,NA,"Rohtas","Karakat","Pahrama",25.09633333,84.35827778,5.53,0.066,0.5,46.2816,143.808,6.25,0.79,5.43,151.2,48.7,1.0296
605,NA,"Rohtas","Karakat","Karup",25.13983333,84.30419444,5.14,0.057,0.49,93.5274,147.84,4.375,1.11,5.52,256.5,41.8,0.396
606,NA,"Rohtas","Karakat","Belwayee",25.13833333,84.27233333,5.12,0.042,0.52,44.3532,155.904,2.5,0.74,5.12,197.4,115.2,0.8712
607,NA,"Rohtas","Karakat","Amartha",25.11883333,84.25894444,8.03,0.177,0.48,35.6754,186.816,3.4375,0.57,4.19,98.7,88.8,0.8712
608,NA,"Rohtas","Karakat","Itwa",25.1525,84.29922222,4.85,0.052,0.26,139.809,165.312,4.6875,1.14,4.54,252.6,29.2,0.9504
609,NA,"Rohtas","Karakat","Motha",25.16775,84.29086111,6.55,0.152,0.39,82.9212,299.712,8.75,1.15,5.42,114.7,78.9,1.2672
610,NA,"Rohtas","Karakat","Jaishree",25.17258333,84.28866667,4.76,0.105,0.28,61.7088,120.96,1.875,1.22,4.7,211.2,48.5,1.1088
611,NA,"Rohtas","Karakat","Bensagar",25.1455,84.20855556,6.4,0.188,0.675,133.06,309.12,7.812,1.288,6.714,199.025,77.85,0.369
612,NA,"Rohtas","Kochas","Chitao",25.24222222,84.99097222,7.06,0.2,0.56,194.7684,479.808,1.875,1.07,3.87,107,42.1,0.0792
613,NA,"Rohtas","Kochas","Katihara",25.23886111,83.97044444,7.62,0.151,0.62,53.031,444.864,2.1875,0.64,2.64,62.9,34.9,4.752
614,NA,"Rohtas","Kochas","Dedaha",25.25125,83.96452778,7.87,0.212,0.69,58.816,315.84,4.063,0.998,2.906,28.775,13.05,0.0792
615,NA,"Rohtas","Kochas","Helha",25.26747222,83.9695,7.6,0.2,0.26,86.778,294.336,1.5625,0.4,1.78,39.3,23.2,3.96
616,NA,"Rohtas","Kochas","Kochas",25.23297222,83.93163889,6.83,0.91,0.66,45.317,243.64,12.5,2.872,3.294,48.15,39.075,0.198
617,NA,"Rohtas","Kochas","Koyrigawan",25.25344444,83.91361111,8.39,0.364,0.22,51.1026,306.432,4.6875,0.48,1.97,29.9,27.3,0.2376
618,NA,"Rohtas","Kochas","Bhagirtha",25.27002778,83.90355556,8.34,0.19,0.48,40.496,326.59,4.063,0.602,2.482,18.15,9.05,0.0396
619,NA,"Rohtas","Kochas","Narwar",25.27844444,83.91025,6.78,0.088,0.4,53.031,440.832,5,1.47,3.59,87.1,62.1,0.3168
620,NA,"Rohtas","Kochas","Gobinapur",25.22783333,83.89847222,7.06,0.1,0.34,33.747,282.24,2.5,0.59,2.83,80,50.3,0.1584
621,NA,"Rohtas","Kochas","Phuli",25.24530556,83.889,7.9,0.58,0.375,31.819,150.53,2.5,0.652,1.85,16.675,17,0.1188
622,NA,"Rohtas","Kochas","Chidaini",25.22097222,83.86172222,7.5,0.187,0.44,69.4224,313.152,1.875,0.44,2.4,75,27.7,0.2376
623,NA,"Rohtas","Kochas","Salas",25.21936111,83.83836111,8.16,0.187,0.405,53.031,350.78,3.75,0.686,2.198,18.4,8.275,0.792
624,NA,"Rohtas","Kochas","Parsatua",25.21077778,83.81372222,8.19,0.186,0.6,67.494,220.42,4.375,0.746,2.356,22.35,9.65,0.8712
625,NA,"Rohtas","Kochas","Kathrayee",25.19133333,83.81763889,7.3,0.14,0.36,17.3556,240.576,1.875,0.77,2.29,77.7,61.8,0.3168
626,NA,"Rohtas","Kochas","Laheri",25.21605556,83.88566667,6.67,0.11,0.48,136.9164,415.296,4.625,1.23,5.5,147.8,76.8,0.2376
627,NA,"Rohtas","Kochas","Dabhriya",25.20291667,83.8915,8.02,0.82,0.45,26.033,84.67,3.75,0.742,2.442,12.275,7.675,0.0792
628,NA,"Rohtas","Kochas","Mainpura",25.19180556,83.89147222,7.38,0.3,0.54,74.2434,404.544,13.4375,0.52,2.5,80.8,23.3,9.504
629,NA,"Rohtas","Kochas","Kapsiya",25.19388889,83.88094444,7.75,0.141,0.675,53.031,223.1,4.375,0.784,3.176,25.9,11.275,1.188
630,NA,"Rohtas","Kochas","Amaisi Dihra",25.22330556,83.96438889,7.65,0.22,0.28,37.6038,290.304,2.8125,0.36,1.74,61.4,26.3,0.0792
631,NA,"Rohtas","Kochas","Manipura",25.20825,83.98022222,7.28,0.13,0.36,53.9952,349.44,2.1875,0.52,2.97,80.3,44.6,3.96
632,NA,"Rohtas","Kochas","Reriya",25.18905556,83.98608333,7.09,0.124,0.2,34.7112,219.072,3.4375,0.49,1.82,89.3,39.9,0.1584
633,NA,"Rohtas","Kochas","Purhara",25.17566667,83.99383333,7.24,0.126,0.48,38.568,338.688,5.9375,0.51,3.09,57,59,0.2376
634,NA,"Rohtas","Kochas","Agarsidihra",25.15752778,83.99158333,8.05,0.153,0.525,29.89,129.02,0.313,0.668,2.388,18.125,9.125,0.158
635,NA,"Rohtas","Kochas","Katua",25.15602778,83.96483333,8,0.49,0.45,48.21,185.47,8.438,0.62,2.264,14.925,6.575,0.0396
636,NA,"Rohtas","Kochas","Balthari",25.20197222,83.91961111,7.92,0.209,0.6,49.174,362.88,10,0.826,2.292,19.55,11.6,0
637,NA,"Rohtas","Kochas","Gaura",25.20936111,83.9185,8.3,0.16,0.14,19.284,229.824,5.9375,0.1,0.31,16.5,13,3.96
638,NA,"Rohtas","Nasriganj","Balia Kothi",25.07088889,84.3225,5.77,0.059,0.13,185.1264,423.36,4.0625,1.24,5.57,241.7,50.2,0.4356
639,NA,"Rohtas","Nasriganj","Bardiha",25.06847222,84.33755556,5.96,0.051,0.22,138.8448,228.48,1.25,0.73,4.06,124.4,133.8,2.693
640,NA,"Rohtas","Nasriganj","Nasiriganj",25.04838889,84.33330556,5.01,0.153,0.47,309.5082,209.664,1.875,4.04,9.03,206.5,47,3.089
641,NA,"Rohtas","Nasriganj","Jamalpur",25.05616667,84.35569444,5.56,0.035,0.5,88.7064,170.688,0.9375,1.05,6.7,194.3,50.4,1.5048
642,NA,"Rohtas","Nasriganj","Mahadeva",25.06755556,84.38402778,5.35,0.057,0.56,105.0978,49.728,2.5,1.66,10.23,209.7,89.3,2.336
643,NA,"Rohtas","Nasriganj","Mangrava",25.09666667,84.39708333,5.91,0.039,0.24,163.914,116.928,1.5625,1.47,6.74,205.1,90.8,0.5544
644,NA,"Rohtas","Nasriganj","Khiriyav",25.11630556,84.40094444,7.43,0.113,0.33,141.7374,72.576,1.25,0.68,3.55,30.1,38.2,2.455
645,NA,"Rohtas","Nasriganj","Sabaari",25.12713889,84.39402778,6.38,0.141,0.65,216.945,1580.544,5.9375,1.39,6.49,144.6,76.7,0.4356
646,NA,"Rohtas","Nasriganj","Kaithi",25.13125,84.40766667,5.85,0.052,0.4,107.0262,122.304,6.25,0.74,5.93,83.9,103.3,2.257
647,NA,"Rohtas","Nasriganj","Shankarpur",25.07833333,84.26969444,5.84,0.74,0.46,122.4534,118.272,5.3125,1.05,8.54,138.2,76.7,0.3168
648,NA,"Rohtas","Nasriganj","Thakurayeeparsiya",25.09036111,84.26966667,6.37,0.147,0.63,158.1288,475.776,8.125,1.34,6.85,110.2,79.1,0.7128
649,NA,"Rohtas","Nasriganj","Baradih",25.07922222,84.27852778,6.12,0.073,0.12,128.2386,65.856,3.125,0.71,5.26,155.5,72.3,2.297
650,NA,"Rohtas","Nasriganj","Mauna",25.06538889,84.274,5.34,0.079,0.69,131.1312,67.2,1.5625,1.39,8.84,257,98.4,2.218
651,NA,"Rohtas","Nasriganj","Ghanao",25.06475,84.29769444,5.07,0.077,0.48,130.167,29.568,5,0.79,6.3,209.3,113.7,2.772
652,NA,"Rohtas","Nasriganj","Majhariya",25.0815,84.30105556,5.13,0.062,0.52,242.0142,188.16,1.5625,0.73,6.18,247,43.3,2.455
653,NA,"Rohtas","Nasriganj","Jeena",25.06186111,84.30986111,5.19,0.088,0.48,178.377,176.064,4.375,1.1,8.18,285.5,58.1,2.772
654,NA,"Rohtas","Nasriganj","Amiyawar",25.04016667,84.31452778,5.42,0.111,0.26,235.2648,52.416,2.8125,2,6.19,258,108.9,2.495
655,NA,"Rohtas","Nasriganj","Madhouli",25.05516667,84.32016667,5.49,0.075,0.855,115.704,239.232,5.625,1.152,8.17,117.375,59.85,0.95
656,NA,"Rohtas","Nasriganj","Sabdala",25.02611111,84.29411111,5.8,0.111,0.825,208.2672,220.416,1.562,1.428,6.654,83.75,65.725,0.633
657,NA,"Rohtas","Nasriganj","Khutaha",25.02994444,84.28716667,6.06,0.059,0.53,122.4534,127.68,3.75,0.67,6.08,179.4,56.9,0.7128
658,NA,"Rohtas","Nasriganj","Pauti",25.03533333,84.28130556,6.07,0.07,0.4,171.6276,513.408,0.9375,1.09,7.06,152.3,70.8,0.6336
659,NA,"Rohtas","Nasriganj","Paruri",25.00755556,84.27047222,5.2,0.069,0.51,147.5226,287.616,1.5625,0.96,7,192.2,40.3,3.009
660,NA,"Rohtas","Nauhatta","Daranagar",24.59875,83.92811111,8.61,0.795,0.375,33.747,236.54,3.75,0.896,2.824,15.05,5.625,0.158
661,NA,"Rohtas","Nauhatta","Tilokhar",24.52363889,83.74355556,7.52,0.339,0.855,131.131,284.93,9.688,2.238,4.042,49.075,5.25,0.554
662,NA,"Rohtas","Nauhatta","Pidapath",24.57722222,83.91933333,7.88,0.118,0.585,33.747,236.54,0.313,0.89,2.602,14.875,14.525,0.396
663,NA,"Rohtas","Nauhatta","Jayantipur",24.57363889,83.86633333,7.14,0.133,0.765,52.067,307.78,1.875,1.384,4.098,40.9,33.75,0.435
664,NA,"Rohtas","Nauhatta","Chaklamauja",24.569,83.80291667,7.07,0.78,0.735,62.673,322.56,0.625,1.01,3.304,51.875,21.35,0.475
665,NA,"Rohtas","Nauhatta","Bhadra",24.57113889,83.91058333,6.57,0.92,0.585,53.995,232.51,2.5,1.23,3.128,55.7,61.7,0.079
667,NA,"Rohtas","Nauhatta","Naudiha",24.56772222,83.86102778,8.17,0.164,0.555,28.926,444.86,6.563,1.32,3.612,43.375,90.95,0.475
668,NA,"Rohtas","Nauhatta","Madhukupiya",24.52311111,84.64333333,8.12,0.165,0.795,110.883,260.74,2.813,1.608,5.392,27.475,15.825,0.316
669,NA,"Rohtas","Nauhatta","Nawadihakla",24.53105556,83.61627778,6,0.139,0.48,42.425,220.42,0.938,1.966,4.764,72.775,71.675,0.435
670,NA,"Rohtas","Nauhatta","Tiura",24.54194444,83.79352778,8,0.182,0.675,32.783,233.86,0.938,0.918,3.634,17.975,19.85,0.554
671,NA,"Rohtas","Nauhatta","Tiyerakhurd",24.51955556,83.70541667,6.54,0.732,0.39,37.604,262.08,0.313,1.236,2.328,26.3,32.925,0.356
672,NA,"Rohtas","Nauhatta","Bishunpur",24.59127778,84.92,6.71,0.139,0.36,28.926,232.51,2.5,0.708,2.502,16.15,42.9,0.079
673,NA,"Rohtas","Nauhatta","Panduka",24.51647222,83.73044444,5.67,0.25,0.54,266.119,236.54,2.5,2.28,3.868,102.35,28.275,0.317
674,NA,"Rohtas","Nauhatta","Nimihad",24.57127778,83.84505556,8.36,0.271,0.87,82.921,344.06,11.25,2.334,6.162,160.925,75,0.317
675,NA,"Rohtas","Nauhatta","Khaira",24.56547222,83.89755556,8.15,0.179,0.54,35.675,290.3,0.938,0.7,3.152,18.725,9.375,0.04
676,NA,"Rohtas","Nauhatta","Yadunaypur",24.52619444,83.59308333,6.34,0.121,0.54,41.461,366.91,1.25,1.022,2.408,18.625,18.45,0.079
677,NA,"Rohtas","Nauhatta","Chokhra",24.55494444,83.81302778,7.22,0.149,0.465,44.353,263.42,0.313,0.8,3.73,78.725,39.1,0.158
678,NA,"Rohtas","Nauhatta","Padriya",24.53155556,83.75766667,7.8,0.217,0.66,35.675,327.94,4.375,0.942,3.536,25.35,13.875,0.553
679,NA,"Rohtas","Nauhatta","Bauliha",24.59530556,84.91186111,7.35,0.154,0.9,27.962,301.06,10.937,1.288,3.48,21.6,6.15,0.237
680,NA,"Rohtas","Nokha","Bhatauli",25.10905556,84.16177778,7.28,0.185,0.4375,91.599,235.2,2.5,0.934,4.446,25.475,31.55,0.3564
681,NA,"Rohtas","Nokha","Chhinauna",25.10491667,84.15191667,6.05,0.113,0.469,63.637,583.3,8.438,0.806,4.972,95.625,81.275,0.356
682,NA,"Rohtas","Nokha","Bhaluahi",25.1115,84.13666667,7.15,0.117,0.59375,59.78,193.54,12.813,0.918,4.056,40.125,32.425,0.1188
683,NA,"Rohtas","Nokha","Telua",25.11683333,84.11352778,5.45,0.077,0.37,34.7112,438.144,12.5,0.59,4.4,98.5,111.2,0.8712
684,NA,"Rohtas","Nokha","Shitalpur",25.12897222,84.11069444,6.95,0.101,0.18,26.9976,805.056,0.9375,0.6,2.5,40.3,55.1,0.2376
685,NA,"Rohtas","Nokha","Sotwa",25.12936111,84.09577778,6.69,0.11,0.453125,93.527,478.46,10.625,0.79,4.25,58.2,79.225,0.4752
686,NA,"Rohtas","Nokha","Gamhariya",25.13480556,84.08969444,5.02,0.225,0.421875,69.422,266.11,9.688,1.574,7.166,145.4,136.05,0.4
687,NA,"Rohtas","Nokha","Dudhar",25.12477778,84.09091667,5.59,0.029,0.41,63.6372,466.368,2.5,1.09,3.97,118.8,124.1,0.594
688,NA,"Rohtas","Nokha","Krishnapur",25.10377778,84.0805,5.26,0.061,0.41,52.0668,198.912,0.9375,1.34,7.23,206.4,73.9,0.2772
689,NA,"Rohtas","Nokha","Jabra Pahari",25.09933333,84.07105556,4.95,0.065,0.46,26.9976,459.648,2.5,0.72,6.08,234.6,78.7,0.4752
690,NA,"Rohtas","Nokha","Sisarti",25.11252778,84.05752778,6.19,0.118,0.38,92.5632,411.264,1.5625,0.78,4.02,137.4,85.9,0.594
691,NA,"Rohtas","Nokha","Nonsari",25.11677778,84.04025,6.5,0.195,0.421875,67.494,344.06,6.563,0.822,3.63,51.95,60.875,0.0396
692,NA,"Rohtas","Nokha","Hathini",25.07755556,84.05266667,6.72,0.092,0.37,82.9212,736.512,1.25,0.5,3.28,66,54.3,0.2376
693,NA,"Rohtas","Nokha","Ruphatha",25.07627778,84.04327778,5.86,0.086,0.41,148.4868,649.152,2.5,0.72,3.59,129.3,87.1,0.5544
694,NA,"Rohtas","Nokha","Barao",25.05936111,84.05158333,5.58,0.062,0.38,105.0978,717.696,0.625,0.71,2.56,NA,NA,0.198
695,NA,"Rohtas","Nokha","Bishunpur",25.05322222,84.03969444,4.68,0.168,0.46,127.2744,580.608,2.8125,0.6,4.69,288.1,12.3,0.4356
696,NA,"Rohtas","Nokha","Naudiha",25.04225,84.08572222,5.68,0.074,0.47,112.8114,9.408,1.25,0.77,4.38,195.8,91.9,0.5148
697,NA,"Rohtas","Nokha","Jagnartola",25.03083333,84.08861111,5.74,0.052,0.26,30.8544,112.896,3.125,0.35,3.78,151.8,103.3,0.396
698,NA,"Rohtas","Nokha","Kadwa",25.03055556,84.09611111,5.2,0.139,0.32,83.8854,432.768,1.25,0.72,6.05,189.6,95,0.7128
699,NA,"Rohtas","Nokha","Meyaribazar",25.02702778,84.11066667,5.75,0.065,0.32,29.8902,447.552,1.25,0.46,4.03,131.3,49.5,1.0296
700,NA,"Rohtas","Nokha","Srikhanda",25.08194444,84.12505556,6.03,0.072,0.29,34.7112,98.112,2.1875,1.51,3.86,102.4,87.6,0.2376
701,NA,"Rohtas","Nokha","Habilapur",25.08788889,84.13672222,5.5,0.219,0.51,70.3866,76.608,0.9375,0.6,5.46,133.9,97.6,0.5544
702,NA,"Rohtas","Nokha","Sisirta",25.06027778,84.10702778,6.05,0.049,0.42,48.21,150.2592,1.25,0.55,3.98,101.6,80.8,0.5544
703,NA,"Rohtas","Nokha","Kharahi",25.05722222,84.12777778,5.79,0.057,0.39,42.4248,1270.08,1.875,0.57,4.89,144.6,101.5,0.2772
704,NA,"Rohtas","Nokha","Bhawpokhar",25.03216667,84.16558333,6.03,0.058,0.48,94.4916,233.856,1.5625,0.48,5.15,174,41.5,0.5544
705,NA,"Rohtas","Nokha","Chanki",25.04383333,84.15730556,5.78,0.083,0.42,69.4224,263.424,0.625,0.7,6,113.2,73.7,0.7524
706,NA,"Rohtas","Rajpur","Sultanpur",25.07202778,84.14894444,6.11,0.066,0.22,94.4916,697.536,3.125,0.64,4.16,122.6,80,0.1584
707,NA,"Rohtas","Rajpur","Bishunpur",25.05519444,84.19347222,6.22,0.078,0.55,43.389,354.816,2.5,0.81,5.6,96.5,92,0.4752
708,NA,"Rohtas","Rajpur","Horahi",25.08025,84.16105556,6.5,0.151,0.12,53.031,311.808,5.625,0.61,4.19,115.2,70.3,0.0792
709,NA,"Rohtas","Rajpur","Partappur",25.07988889,84.19563889,5.49,0.064,0.36,36.6396,161.28,1.875,0.52,5.4,134,99,0.1584
710,NA,"Rohtas","Rajpur","Siyanwak",25.09741667,84.19447222,5.94,0.12,0.3,69.4224,470.4,1.875,0.8,3.94,106.7,115.1,0.0792
711,NA,"Rohtas","Rajpur","Baghaila",25.04775,84.18319444,5.1,0.083,0.47,96.42,620.928,1.875,1.05,7.6,272.4,76,0.9504
712,NA,"Rohtas","Rajpur","Rotwa",25.04336111,84.16888889,5.41,0.061,0.46,104.1336,307.776,5.3125,0.57,5.51,171.1,27.1,0.4752
713,NA,"Rohtas","Rajpur","Patkhalia",25.08630556,84.21516667,5.46,0.7,0.23,55.9236,614.208,1.5625,0.49,3.89,183.7,6.1,0.3168
714,NA,"Rohtas","Rajpur","Baruna",25.11241667,84.22947222,5.33,0.062,0.4,53.031,298.368,1.25,0.9,6.92,209.2,25.1,0.4752
715,NA,"Rohtas","Rajpur","Dehri",25.118,84.22005556,5.25,0.052,0.57,44.3532,478.464,3.125,0.71,7.92,255.1,44.4,0.0792
716,NA,"Rohtas","Rajpur","Mangar Bariya",25.07636111,84.23847222,4.95,0.115,0.24,69.4224,223.104,3.125,0.71,4.07,202.7,15.3,0.3168
717,NA,"Rohtas","Rajpur","Sakhara",25.10047222,84.23955556,7.03,0.125,0.15,20.2482,217.728,0.9375,0.4,2.15,60.4,44.7,0.3564
718,NA,"Rohtas","Rajpur","Amarpura",25.10027778,84.22974,5.9,0.046,0.11,38.568,477.12,3.125,0.55,1.4,86,27.5,0.2376
719,NA,"Rohtas","Rajpur","Rajandih",25.06369444,84.23597222,4.7,0.153,0.36,83.8854,254.016,1.875,0.76,5.29,228.4,19.7,0.3168
720,NA,"Rohtas","Rohtas","Thamba ",24.59447222,83.93627778,5.9,0.22,0.545,1.298,193.54,4.375,1.726,2.854,61.625,57.55,0.913
721,NA,"Rohtas","Rohtas","Karma",24.72961111,84.02552778,4.9,0.18,0.56,0.882,302.4,6.563,6.184,4.546,110.475,70.125,0.041
722,NA,"Rohtas","Rohtas","Akbarpur",24.63927778,83.96358333,7,0.15,0.636,1.05,225.79,0.938,5.378,1.148,19.4,29.475,0.513
723,NA,"Rohtas","Rohtas","Kariyawa",24.68130556,84.00508333,7.5,0.18,0.954,1.35,240.58,0.938,8.008,3.224,16.975,14.625,0.154
724,NA,"Rohtas","Rohtas","Kothibigha",24.71172222,84.01227778,5.01,0.6,0.863,3.006,409.92,143.75,0.97,2.782,132.975,33.75,0.359
725,NA,"Rohtas","Rohtas","Nawadih (Rasalpur)",24.72163889,84.01513889,6.25,1.1,0.893,6.875,575.23,202.5,1.202,3.802,0,20.65,0.872
726,NA,"Rohtas","Rohtas","Uchoula",24.63016667,83.96383333,7.08,0.184,0.984,1.30272,194.88,5.313,2.068,8.018,44.45,0,0.554
727,NA,"Rohtas","Rohtas","Rasalpur",24.69936111,84.00347222,7.95,0.273,0.151,2.17035,249.98,27.813,2.48,3.482,42.85,11.225,0.158
728,NA,"Rohtas","Rohtas","Baknora",24.643,83.83475,8.11,0.209,0.575,1.69499,396.48,3.75,3.678,2.836,32.55,14,0.154
729,NA,"Rohtas","Rohtas","Samhuta",24.66366667,83.98913889,8.05,0.281,0.681,2.26205,517.44,9.063,7.842,3.096,13.2,16.325,0.636
730,NA,"Rohtas","Rohtas","Nawadih",24.60433333,83.94833333,7.36,0.182,0.727,1.33952,249.98,3.438,9.084,3.576,62.675,33.55,0.079
731,NA,"Rohtas","Rohtas","Bharui",24.65972222,83.97577778,8.07,0.241,0.848,1.94487,303.74,5.625,1.492,3.89,22.45,14.05,0.677
732,NA,"Rohtas","Rohtas","Gobindpur",24.61966667,83.95827778,7.86,0.184,0.651,1.44624,436.8,1.563,4.918,7.454,48.9,19.775,0.472
733,NA,"Rohtas","Rohtas","Tumba",24.74233333,84.03286111,8.09,0.191,0.621,1.54519,220.42,4.688,1.268,2.966,21.65,13.975,1.042
734,NA,"Rohtas","Rohtas","Nimyatikri",24.63613889,83.95766667,7.82,0.148,0.545,1.15736,248.64,1.875,1.104,2.938,17.25,20.825,0.119
735,NA,"Rohtas","Rohtas","Bajidpur",24.68447222,83.99975,8.21,0.235,0.666,1.92935,225.79,24.375,5.49,4.058,24.9,4.6,0.042
736,NA,"Rohtas","Rohtas","Lebura",24.67241667,83.99338889,8.17,0.381,0.924,3.11277,262.08,34.375,5.024,3.72,7.45,4.775,0.158
737,NA,"Rohtas","Rohtas","Telcup",24.70638889,84.00544444,7.43,1.125,0.621,8.35875,314.5,24.5,14.918,2.306,27,3.2,0.198
738,NA,"Rohtas","Sanjhauli","Kauni",25.15697222,84.19452778,5.28,0.056,0.3,102.2052,29.568,7.8125,0.87,4.14,189.6,112.4,0.6336
739,NA,"Rohtas","Sanjhauli","Karmaini",25.176,84.19475,6.82,0.1,0.42,37.6038,52.416,10,0.71,4.46,79.1,68.9,0.792
740,NA,"Rohtas","Sanjhauli","Jigani",25.17469444,84.18347222,5.49,0.193,0.885,100.277,477.12,12.813,0.63,4.614,135.525,45.475,0.436
741,NA,"Rohtas","Sanjhauli","Mishrawalia",25.18527778,84.18844444,6.16,0.1,0.72,646.014,452.928,5.3125,1,6.26,84.5,86.3,0.5544
742,NA,"Rohtas","Sanjhauli","Khaira Bhutaha",25.20327778,84.18397222,5.48,0.8,0.3,53.9952,80.64,4.375,1.04,5.08,167.8,89.7,1.0296
743,NA,"Rohtas","Sanjhauli","Chandi",25.20527778,84.18030556,6.12,0.57,0.72,40.4964,646.464,5.625,1.18,5.89,78.4,74.5,0.3168
744,NA,"Rohtas","Sanjhauli","Udaipur",25.12675,84.17680556,5.3,0.63,0.38,90.6348,29.568,4.6875,0.63,4.76,166.6,87.4,1.3464
745,NA,"Rohtas","Sanjhauli","Chaita Narwad",25.12019444,84.18863889,6.36,0.12,0.38,45.3174,744.576,5.625,0.57,4.36,72,95.7,0.792
746,NA,"Rohtas","Sanjhauli","Sosari",25.12194444,84.14844444,6.73,0.133,0.4,60.7446,223.104,4.6875,0.45,4.03,118.7,56.9,0.5544
747,NA,"Rohtas","Sasaram","Dhaudal",24.90230556,84.07383333,7.74,0.1,0.482,0.774,145.15,0.625,0.782,1.504,21.025,31.1,0.752
748,NA,"Rohtas","Sasaram","Sikaria",24.90847222,84.00036111,8.14,0.14,0.298,1.1396,181.44,1.25,1.316,3.87,37.225,24.725,0.91
749,NA,"Rohtas","Sasaram","Rangpur",24.88819444,83.977,6.15,0.1,0.447,0.615,243.26,3.75,1.182,3.512,87,101.075,1.504
750,NA,"Rohtas","Sasaram","Kadirgani",24.93619444,84.01591667,7.33,0.2,0.388,1.466,204.29,0.937,1.822,2.878,24.5,25.875,0.396
751,NA,"Rohtas","Sasaram","Dariyano",24.87977778,83.94533333,5.39,0.34,0.477,1.8326,553.73,10,2.498,5.058,151.35,123.375,0.99
752,NA,"Rohtas","Sasaram","Akashitola",25.0025,84.04444444,6.9,0.16,0.343,1.104,177.41,6.25,1.028,2.788,32.575,28.55,0.673
753,NA,"Rohtas","Sasaram","Samadihora",24.99744444,83.98597222,7.5,0.3,0.482,2.25,233.86,14.375,1.014,2.742,21.15,17.2,1.029
754,NA,"Rohtas","Sasaram","Bhodokhara",24.92461111,84.01186111,6.91,0.11,0.482,0.7601,294.34,7.812,1.022,2.598,32.875,46.125,0.831
755,NA,"Rohtas","Sasaram","Ramgardh ",25.01644444,84.03322222,5.92,0.11,0.343,0.6512,150.53,7.187,0.844,4.618,68,66.05,0.633
756,NA,"Rohtas","Sasaram","Karserua",24.88275,83.95944444,6.77,0.17,0.447,1.1509,252.67,7.812,1.366,2.594,27.15,56.675,0.91
757,NA,"Rohtas","Sasaram","Karup",24.94038889,83.96816667,6.42,0.14,0.492,0.8988,244.61,7.187,2.28,7.26,72.1,60.6,0.673
758,NA,"Rohtas","Sasaram","Tenua ",24.86902778,83.95422222,7.84,0.1,0.313,0.0784,211.01,0.312,0.766,3.304,34.3,15.025,0.792
759,NA,"Rohtas","Sasaram","Nekra",24.98813889,84.1335,5.49,0.1,0.492,0.0549,259.39,9.687,0.824,3.392,110.825,68.875,0.871
760,NA,"Rohtas","Sasaram","Sikaria",24.91611111,83.99730556,7.51,0.12,0.507,0.9012,177.41,1.25,0.992,2.078,48.725,19.525,0.792
761,NA,"Rohtas","Sasaram","Kothara",24.99908333,84.00558333,7.76,0.18,0.358,1.3968,362.88,1.562,1.072,2.184,49.55,20.075,1.465
762,NA,"Rohtas","Sasaram","Kuraba",24.998,84.06086111,5.68,0.12,0.482,0.6816,184.13,6.25,0.8,3.324,83.375,67.125,0.514
763,NA,"Rohtas","Sasaram","Gotpa",24.98313889,84.06147222,6.1,0.1,0.298,0.061,192.19,7.5,0.868,3.312,93.2,60.9,0.712
764,NA,"Rohtas","Sasaram","Khudhanu",24.98308333,84.08436111,5.41,0.1,0.507,0.0541,147.84,29.062,1.588,5.26,227.125,102.325,1.663
765,NA,"Rohtas","Sasaram","Muradabad",24.96919444,84.00072222,6.51,0.32,0.776,2.0832,455.62,13.75,1.346,4.726,148.525,59.1,1.663
766,NA,"Rohtas","Sasaram","Lalganj",24.96963889,84.01947222,4.89,0.41,0.447,2.0049,170.69,2.812,1.454,4.364,204.3,51.175,1.425
767,NA,"Rohtas","Sasaram","Baradih",24.98077778,83.99802778,5.96,0.8,0.313,0.4768,155.9,5.937,0.75,2.788,113.65,98.25,0.99
768,NA,"Rohtas","Sasaram","Tiwaridih",24.99686111,84.09536111,5.36,0.7,0.482,0.3752,161.28,0.625,1.176,5.222,165.725,55.075,0.792
769,NA,"Rohtas","Sasaram","Kardihri",24.98111111,84.05019444,5.88,0.08,0.552,0.4704,237.89,6.25,0.974,4.576,76.45,90.8,0.91
770,NA,"Rohtas","Sasaram","Dhankadha",24.91205556,84.07422222,6.89,0.12,0.283,0.8268,239.23,1.25,0.882,2.642,16.4,21.275,1.425
771,NA,"Rohtas","Sasaram","Medanipur",24.90641667,84.08780556,5.99,0.13,0.388,0.7787,208.32,4.687,0.78,2.752,15.325,20.725,1.425
772,NA,"Rohtas","Sasaram","Khaira",24.94063889,83.99191667,5.81,0.08,0.417,0.4648,186.82,0.312,0.84,4.068,59,47.75,1.267
773,NA,"Rohtas","Sasaram","Rudana",25.00816667,84.08711111,5.1,0.12,0.402,0.612,215.04,2.812,0.79,3.512,64.4,123.3,1.346
774,NA,"Rohtas","Sasaram","Janara",24.92969444,83.95872222,7.68,0.78,0.761,5.9904,236.54,75,0.972,3.488,27.325,12.125,1.306
775,NA,"Rohtas","Sasaram","Bellari",24.93958333,83.98416667,6.64,0.11,0.656,0.7304,255.36,0.625,0.892,4.05,58.6,37.1,1.108
776,NA,"Rohtas","Sasaram","Pipri",24.99141667,84.03505556,6.72,0.11,0.268,0.7392,204.29,321.875,0.872,2.796,40.725,74.225,0.871
777,NA,"Rohtas","Sasaram","Nahouna",24.98569444,84.09858333,6.86,1.39,0.537,9.5354,137.09,321.88,1.272,3.048,38.75,40.75,0.95
778,NA,"Rohtas","Shivsagar","Sonhar ",24.94380556,83.90363889,7.5,0.34,0.694,2.55,1177.34,17.5,2.388,8.528,28.45,15.675,1.108
779,NA,"Rohtas","Shivsagar","Semri ",24.90338889,83.92291667,7.29,0.48,0.605,3.4992,325.25,26.785,1.264,3.52,37.275,21.375,0.27
780,NA,"Rohtas","Shivsagar","Saraiya",24.99844444,83.84425,6.2,0.13,0.477,0.806,189.5,2.813,0.97,3.642,74.5,73.65,0.277
781,NA,"Rohtas","Shivsagar","Tadi",24.95266667,83.88213889,8.08,1.31,0.546,10.5848,322.56,15,2.608,3.348,19.125,11.575,1.504
782,NA,"Rohtas","Shivsagar","Naad",24.90344444,83.86916667,7.39,0.34,0.783,2.5126,376.32,15.313,1.956,3.596,19.55,17.3,0.594
783,NA,"Rohtas","Shivsagar","Maldha",24.94272222,83.87302778,7.9,0.25,0.605,1.975,212.35,10.938,1.51,3.784,25.375,21.25,1.504
784,NA,"Rohtas","Shivsagar","Kasaw",24.87827778,83.87558333,7.73,0.27,0.428,2.0871,263.42,15.938,0.782,3.748,57.85,30.5,0.356
785,NA,"Rohtas","Shivsagar","Girhariya",24.97283333,83.91194444,8.15,0.23,0.753,1.8745,409.92,0.313,1.316,4.67,27.45,8.3,0.91
786,NA,"Rohtas","Shivsagar","Khurmabad",25.01519444,83.84047222,6.8,0.17,0.576,1.156,333.31,0.313,1.182,3.076,22.875,33.575,1.425
787,NA,"Rohtas","Shivsagar","Vishrampur",24.86702778,83.91611111,5.3,0.32,0.532,1.696,182.78,18.75,1.822,4.738,171.15,68.425,0.712
788,NA,"Rohtas","Shivsagar","Parasdingh",25.03319444,83.89658333,8.05,0.16,0.561,1.288,315.84,0.313,2.498,2.398,25.925,10.35,0.396
789,NA,"Rohtas","Shivsagar","Konaki",24.88375,83.97719444,7.55,0.18,0.576,1.359,330.62,12.188,0.64,3.242,22.275,20.45,1.188
790,NA,"Rohtas","Shivsagar","Patari",24.91008333,83.94891667,7.05,0.19,0.399,1.3395,181.44,15.313,0.81,1.952,14.2,12.5,0.316
791,NA,"Rohtas","Shivsagar","Auraiyan",25.02208333,83.85913889,7.91,0.21,0.605,1.6611,266.11,0.313,0.61,2.68,19.025,13.95,0.673
792,NA,"Rohtas","Shivsagar","Siktaur",24.92541667,83.87997222,6.81,0.24,0.413,1.6344,383.04,3.125,0.52,2.878,25.625,21.5,0.316
793,NA,"Rohtas","Shivsagar","Kumhau",24.96488889,83.96338889,6.81,2.55,0.783,17.3655,653.18,246.25,0.8,7.846,39.6,80.525,0.396
794,NA,"Rohtas","Shivsagar","Bhadarbhila",24.95513889,83.91005556,8.7,0.42,0.413,3.654,627.65,3.438,1.05,2.614,6.4,6.425,0.356
795,NA,"Rohtas","Shivsagar","Dumri",25.01425,83.89941667,8,0.23,0.487,1.84,595.39,3.125,0.57,4.156,21.3,12.475,0.792
796,NA,"Rohtas","Shivsagar","Ulho",24.85452778,83.89186111,6.31,0.94,0.31,0.59314,248.64,0.313,0.49,2.9,81.45,76.525,0.118
797,NA,"Rohtas","Shivsagar","Sahua",25.01966667,83.89183333,7.71,0.26,0.399,2.0046,225.79,0.313,0.9,2.09,15.575,10.425,0.039
798,NA,"Rohtas","Shivsagar","Bhagwalia",25.04802778,83.88302778,7.63,0.12,0.502,0.9156,307.78,0.313,0.71,3.032,36.075,15,0.056
799,NA,"Rohtas","Shivsagar","Biura",24.8785,83.92922222,7,0.26,0.502,1.82,413.95,11.875,0.71,2.52,36.45,27.55,0.712
800,NA,"Rohtas","Shivsagar","Telari",24.97644444,83.81475,6.68,0.1,0.413,0.668,544.32,0.938,0.4,2.51,48.7,37.175,0.198
801,NA,"Rohtas","Shivsagar","Jayrampur",24.85713889,83.90855556,6.14,0.8,0.075,0.4912,477.12,0.313,1.178,3.63,77.65,110.375,0.475
802,NA,"Rohtas","Shivsagar","Sarai",24.95519444,83.96483333,8.15,0.79,0.606,6.4385,583.3,71.25,7.524,3.76,33.925,14.1,0.91
803,NA,"Rohtas","Shivsagar","Naiya",24.877,83.89255556,6.2,0.18,0.439,1.116,517.44,7.813,4.316,2.046,44.25,54.125,1.742
804,NA,"Rohtas","Shivsagar","Gothar",24.86269444,83.89388889,6.8,0.11,0.666,0.748,465.02,2.813,8.424,3.336,55.525,47.55,0.475
805,NA,"Rohtas","Shivsagar","Sondihra",24.98638889,84.88969444,7.5,0.16,0.636,1.2,517.44,15.313,3.656,2.588,28.975,16.075,0.99
806,NA,"Rohtas","Shivsagar","Chandanpura",25.02257222,83.94644444,7.7,0.23,0.651,1.771,302.4,19.063,5.108,3.644,25.125,11.9,1.029
807,NA,"Rohtas","Shivsagar","Kirihiri",24.98305556,83.94183333,7.9,0.24,0.727,1.896,225.79,22.5,1.418,4.878,35.325,8,0.871
808,NA,"Rohtas","Shivsagar","Konar",25.02041667,83.96902778,8.07,0.2,0.681,1.614,295.68,8.438,1.044,2.558,20.75,6.775,0.725
809,NA,"Rohtas","Shivsagar","Patadhi",24.99519444,83.94836111,7.5,0.14,0.56,1.05,248.64,4.688,3.946,5.152,30.575,17.275,0.594
810,NA,"Rohtas","Surjpura","Karma",25.26986111,84.28330556,6.62,0.84,0.35,182.2338,336,2.5,2.98,4.76,82.5,84.5,0.871
811,NA,"Rohtas","Surjpura","Andhar",25.272,84.27525,6.38,0.142,0.48,140.7732,470.4,8.125,1.09,7.32,133.7,87.2,1.702
812,NA,"Rohtas","Surjpura","Goshaldih",25.28819444,84.27130556,5.74,0.54,0.48,114.7398,206.976,1.25,1.21,7.49,155.4,102.8,2.257
813,NA,"Rohtas","Surjpura","Kawayee",25.27361111,84.26105556,5.04,0.85,0.44,274.797,372.288,2.1875,2.94,10.96,371.1,80.2,1.861
814,NA,"Rohtas","Surjpura","Emirata",25.26216667,84.24319444,5.98,0.11,0.61,101.241,235.2,0.625,0.69,4.39,112.4,82.6,0.673
